LON,LAT,CODIGO,CAT,NOMBRE,MUNICIPIO,DEPARTAMENTO,ELEVACIÓN,M_ENE,M_FEB,M_MAR,M_ABR,M_MAY,M_JUN,M_JUL,M_AGO,M_SEP,M_OCT,M_NOV,M_DIC,M_ANUAL,H_ENE,H_FEB,MAR,H_ABR,H_MAY,H_JUN,H_JUL,H_AGO,H_SEP,H_OCT,H_NOV,H_DIC,H_PROMEDIO ANUAL,H_MAXIMA ANUAL,L_ENE,L_FEB,L_MAR,L_ABR,L_MAY,L_JUN,L_JUL,L_AGO,L_SEP,L_OCT,L_NOV,L_DIC,L_PROMEDIO ANUAL,L_MINIMA ANUAL
-69.94,-4.19,48015010,SP,A.Vasquez Cobo,Leticia,Amazos,84,26,26,26.1,26,25.7,25.1,25.1,25.7,26.1,26.3,26.3,26,25.9,30.7,30.7,30.8,30.5,30.1,29.5,30,31.1,31.6,31.6,31.3,30.8,30.7,31.6,23,22.9,23,23,22.7,21.8,21.2,21.5,22,22.6,22.9,22.9,22.5,21.2
-75.14,6.38,23085030,CO,Alejandria,Alejandria,Antioquia,1660,19.4,19.3,19.3,19.5,19.6,19.5,19.6,19.6,19.5,19.4,19.3,19.3,19.4,24.5,24.6,24.5,24.5,24.8,24.6,24.9,25,24.7,24.3,24,24,24.5,25,14.8,14.7,15.1,15.4,15.5,15.2,14.7,14.7,15,15.1,15.2,14.9,15,14.7
-75.88,5.69,26195020,CO,Ita Andes,Andes,Antioquia,1180,22.1,22.6,22.5,22.3,22,21.8,22,21.9,21.6,21.6,21.7,21.7,22,29.1,29.6,29.5,28.9,28.3,28.3,28.6,28.5,28.3,27.9,28,28.2,28.7,29.6,16.4,17,17.1,17,17,16.7,16.5,16.4,16.6,16.6,16.9,16.8,16.7,16.4
-75.15,7.07,27025030,CO,Anori,Anori,Antioquia,1610,18.6,18.7,18.9,19.2,19.6,19.8,19.8,19.8,19.4,19,18.8,18.7,19.2,23.1,23.1,23.2,23.5,24.1,24.6,24.8,24.9,24.3,23.5,23.1,23,23.8,24.9,14.9,15.2,15.6,16.1,16.2,16.1,15.8,15.9,15.7,15.7,15.6,15.4,15.7,14.9
-76.65,7.83,12015020,AM,Uniban,Apartado,Antioquia,23,26.5,26.6,26.9,27,26.8,26.7,26.7,26.7,26.5,26.4,26.3,26.4,26.6,30.8,31,31.3,31.3,31.4,31.4,31.4,31.4,31.4,31.4,30.9,30.7,31.2,31.4,23.5,23.6,23.9,24,23.8,23.4,23.2,23.4,23.3,23.4,23.2,23.5,23.5,23.2
-76.42,8.85,12045010,CP,Arboletes,Arboletes,Antioquia,4,27.6,27.6,28,28.2,28,27.8,27.7,27.6,27.3,27.3,27.3,27.4,27.6,30.5,30.4,30.7,30.8,30.8,31,30.9,30.8,30.7,30.8,30.6,30.4,30.7,31,23.5,24,24.3,24.2,23.5,23.4,23,22.9,22.8,22.9,23.1,23.4,23.4,22.8
-75.4,6.41,27015150,CO,Progreso El Hda,Barbosa,Antioquia,1500,21.9,22.2,22.3,22.1,22.1,22.2,22.1,22.2,22,21.7,21.7,21.7,22,28.1,28.5,28.8,27.8,28.1,28.3,28.3,28.5,28.1,27.2,27.1,27.4,28,28.8,16.1,16.1,16.4,16.9,17,16.5,16,16.2,16.3,16.5,16.7,16.6,16.4,16
-75.55,6.32,27015090,CO,Tulio Ospi,Bello,Antioquia,1438,21.7,22.2,22.3,22.1,22.1,22.3,22.5,22.5,21.9,21.2,21.3,21.4,22,27.8,28.5,28.6,27.8,27.9,28.2,28.4,28.7,28.2,27.3,27.1,27,27.9,28.7,16.5,16.1,17.1,17.5,17.5,17.1,16.6,16.9,16.9,17,17,16.8,16.9,16.1
-75.91,6.73,26225040,CO,Piunti Hda,Buritica,Antioquia,1650,21,21.3,21.3,21,20.6,20.8,20.9,20.7,20.5,20.2,20.3,20.5,20.7,26.6,27.1,27.3,26.4,25.5,25.3,25.7,25.8,25.4,24.9,24.8,25.1,25.8,27.3,,,,,,,,,,,,,,
-75.62,6.05,27015260,AM,Salada La,Caldas,Antioquia,1680,18.4,18.6,18.4,18.2,18.3,18.5,18.6,18.7,18.1,18,17.8,18.1,18.3,23.5,23.9,23.7,23.2,23.2,23.3,23.7,23.7,23.1,22.8,22.6,22.8,23.3,23.9,12.6,12.6,12.7,13.1,13.3,13,12.6,12.9,12.8,12.9,12.9,13.1,12.9,12.6
-76.03,6.76,11115020,CO,Casgordas,Casgordas,Antioquia,1200,21.6,21.7,21.8,21.7,21.6,21.7,21.7,21.7,21.5,21.1,21.2,21.4,21.5,27.1,27.6,27.5,26.9,26.6,26.7,27,27.3,27,26.1,26.1,26.5,26.8,27.6,16,16.2,16.5,16.9,17.1,17,16.8,16.7,16.7,16.6,16.6,16.4,16.7,16
-76.72,7.82,12015070,SP,Apto Los Cedros,Carepa,Antioquia,19,27.1,27.1,27.3,27.5,27.5,27.5,27.5,27.5,27.3,27.2,27.1,27.1,27.3,30.6,30.6,30.8,31.1,31.5,31.5,31.5,31.7,31.7,31.5,31.2,30.9,31.2,31.7,23.4,23.6,23.7,23.9,23.6,23.4,23.1,23.1,22.9,23,22.9,23.3,23.3,22.9
-76.66,7.77,12015060,CO,Tulepa,Carepa,Antioquia,30,26.7,26.8,27,27.2,27,26.9,26.7,26.8,26.7,26.6,26.5,26.6,26.8,30.7,30.7,31,31.2,31.3,31.3,31.3,31.4,31.3,31.1,30.9,30.8,31.1,31.4,23.3,23.3,23.5,23.9,23.8,23.4,23.2,23.5,23.3,23.3,23.2,23.2,23.4,23.2
-75.12,7.98,26255040,CP,Cacaoteras del Diq,Caucasia,Antioquia,55,27.7,28.2,28.5,28.4,28.1,27.9,28,28,27.6,27.5,27.6,27.7,27.9,33.1,33.6,33.9,33.3,32.4,32.2,32.4,32.4,31.9,31.7,31.9,32.1,32.5,33.9,22.9,23,23.4,23.9,23.8,23.5,23,23,23,23.2,23.4,23.3,23.3,22.9
-74.93,7.81,27045020,CO,Caseri,Caucasia,Antioquia,400,28,28.3,28.4,28,27.8,27.8,27.9,27.8,27.6,27.6,27.4,27.7,27.8,33,33.8,33.6,33.3,33.1,32.8,33.2,33,32.5,32.3,32.2,32.7,33,33.8,23.1,23,23.1,23.7,23.4,23,22.8,22.7,22.9,23,22.7,23,22.9,22.7
-76.61,7.54,12015090,CO,Palmera La,Chigorodo,Antioquia,58,27.2,27.7,27.8,27.6,27.4,27.3,27.1,27.2,27.1,27.1,27,27,27.3,31.2,31.7,32,31.4,31.3,31.1,31,31,31,30.9,30.5,30.7,31.2,32,22.3,22.2,22.9,22.9,22.9,22.7,22.4,22.4,22.1,22.2,22.4,22.6,22.5,22.1
-76.08,5.88,11025010,CO,Mansa La,Ciudad Bolivar,Antioquia,2100,16.7,16.9,17,17,17.1,17,16.8,16.8,16.6,16.4,16.4,16.6,16.8,21.1,21.4,21.4,21.2,21.1,21.2,21.3,21.4,20.9,20.5,20.4,20.6,21,21.4,12.9,13.1,13.3,13.5,13.4,13,12.5,12.6,12.8,12.8,13,13,13,12.5
-75.92,6.04,26215010,CO,Concordia,Concordia,Antioquia,1904,18.5,18.8,18.8,18.6,18.6,18.8,18.9,18.8,18.4,17.9,17.8,18.1,18.5,23.4,23.9,23.6,23.2,23,23.4,23.7,23.9,23.2,22.5,22.4,22.7,23.2,23.9,14.3,14.4,14.4,14.4,14.5,14.5,14.4,14.3,14,14,14,14.2,14.3,14
-75.65,5.8,26175040,CO,Tunez Hda,Fredonia,Antioquia,530,26.1,27,27,26.4,25.9,25.8,25.9,26.1,25.7,25.2,25.4,25.4,26,33.4,34.1,34.1,32.8,32.2,32.5,33.1,33.5,32.7,32,31.9,32.3,32.9,34.1,19.1,19.4,19.8,20,19.9,19.7,19.2,19.2,19.3,19.4,19.6,19.4,19.5,19.1
-76.19,6.79,11115040,CO,Musinga,Frontino,Antioquia,1330,19.9,20,20.2,20.1,20,19.9,19.9,20,19.9,19.8,19.8,19.8,19.9,25.4,25.8,25.9,25.5,25.3,25.2,25.3,25.4,25.1,24.9,24.7,24.8,25.3,25.9,15.2,15.1,15.5,15.9,15.9,15.8,15.6,15.7,15.7,15.6,15.7,15.5,15.6,15.1
-75.8,5.59,26195030,CO,Jardin El,Jardin,Antioquia,2005,17.1,17.4,17.3,17.3,17.2,17.1,17,17,16.8,16.7,16.7,16.9,17.1,22.2,22.6,22.4,22.1,21.8,21.8,21.9,21.9,21.7,21.4,21.3,21.7,21.9,22.6,13.2,13.5,13.7,13.9,13.9,13.5,13.1,13.1,13.2,13.2,13.3,13.3,13.4,13.1
-75.85,5.53,26195010,CO,Miguel Valencia,Jardin,Antioquia,1570,19,19.5,19.7,19.7,19.5,19.5,19.3,19.3,18.8,18.7,18.8,18.9,19.2,25.3,25.8,26,25.6,25.3,25.7,25.8,25.7,25.1,24.6,24.8,25.1,25.4,26,15.1,15.2,15.4,15.7,15.4,15,14.5,14.7,14.7,14.8,15.1,15,15.1,14.5
-75.32,5.89,26185020,CO,Mesopotamia,La Union,Antioquia,2314,14.5,14.8,14.9,15.2,15.3,15.2,14.9,15,14.9,14.7,14.6,14.6,14.9,20,20.3,20.5,20.6,20.8,20.5,20.4,20.6,20.5,20.3,20.2,20.1,20.4,20.8,9.9,10.2,10.4,10.6,10.6,9.9,9.6,9.7,10.1,10.2,10.2,10.1,10.1,9.6
-75.59,6.22,27015070,SP,A.Olaya Herrera,Medellin,Antioquia,1490,22.4,22.7,22.7,22.4,22.6,22.9,23.1,23.1,22.4,21.8,21.8,21.9,22.5,27.8,28.2,28.1,27.6,27.8,28.2,28.4,28.5,28,27.2,27.1,27.2,27.8,28.5,17.2,17.5,17.7,17.8,17.8,17.4,17.1,17.2,17,17,17.3,17.2,17.4,17
-76.48,7.35,12015010,CO,Villarteaga,Mutata,Antioquia,132,26,26.2,26.2,26.3,26.4,26.2,25.9,25.9,25.9,25.9,25.7,25.8,26.1,,,,,,,,,,,,,,,22.1,22,22.2,21.9,21.7,21.9,21.7,21.4,21.7,21.3,21.4,21.2,21.7,21.2
-76.67,8.54,12025030,CO,Mellito El,Necocli,Antioquia,10,26.6,26.8,27.1,27.4,27.2,27,27,27,26.9,26.9,26.8,26.6,26.9,30.8,31.1,31,31.3,31.2,31.3,31.2,31.2,31.1,31.3,30.9,30.9,31.1,31.3,22.6,23.6,24.1,24.5,24.1,23.6,23.3,23.3,23.3,23.4,23.4,23.3,23.5,22.6
-75.24,6.21,23085110,CO,Penol El,Penol,Antioquia,1956,17.8,18,18.1,18.3,18.6,18.8,18.7,18.7,18.3,18,17.8,17.7,18.2,22.6,22.8,23.2,23.3,23.7,23.8,23.9,24,23.6,23,22.6,22.5,23.3,24,12.8,13,13,13.1,13.3,13,12.7,12.8,12.6,12.6,12.7,12.7,12.9,12.6
-74.41,6.47,23095010,CP,Apto Pto Berrio,Puerto Berrio,Antioquia,150,28.9,29.2,28.9,28.6,28.6,28.6,28.7,28.6,28.3,28,28,28.4,28.5,33.4,33.7,33,32.5,32.5,32.7,33,33.1,32.3,31.9,32.1,32.6,32.7,33.7,22.9,23.2,23.3,23.3,23.3,23,22.7,22.6,22.6,22.7,23,23.1,23,22.6
-74.72,7.01,23175020,SS,Apto Otu,Remedios,Antioquia,718,24.8,25,24.9,25,25,25.1,25.1,25.2,24.9,24.8,24.6,24.7,24.9,28.6,29.1,28.9,29.1,29.2,29.4,29.6,29.7,29,28.6,28.2,28.2,29,29.7,20,20.2,20.4,20.4,20.3,20.1,19.9,20,20,20,20.1,20,20.1,19.9
-75.43,6.17,23085200,SP,A.J M Cordova,Rionegro,Antioquia,2073,16.7,17.1,17.1,17.3,17.4,17.3,17.3,17.3,17.1,16.5,16.5,16.6,17,21.8,22.2,22.3,22.2,22.5,22.5,22.5,22.6,22.4,21.8,21.6,21.7,22.2,22.6,12.4,12.6,12.7,13.2,13.1,12.4,11.7,11.9,12.3,12.5,12.7,12.6,12.5,11.7
-75.41,6.13,23085040,AM,Selva La,Rionegro,Antioquia,2090,16.6,16.8,17,17.1,17.1,17,16.8,16.9,16.8,16.5,16.6,16.6,16.8,22.3,22.5,22.8,22.6,22.8,22.8,22.9,23.1,22.8,22.4,22.1,22.1,22.6,23.1,12,12.2,12.5,13,12.9,12,11.3,11.4,12,12.4,12.6,12.3,12.2,11.3
-75.04,6.16,23085220,CP,San Carlos,San Carlos,Antioquia,1113,22,22.3,22.4,22.6,23,23.1,23,23.1,22.7,22.2,21.8,22,22.5,26.9,27.3,27.5,27.6,28.1,28.6,28.8,28.9,28.4,27.4,26.6,26.6,27.8,28.9,17.6,17.8,17.7,17.9,17.9,17.5,17.2,17,17.1,17.2,17.4,17.4,17.5,17
-75.1,5.96,23085140,CO,San Francisco,San Francisco,Antioquia,1306,21.7,21.8,21.7,21.8,21.8,22,22,21.9,21.7,21.5,21.5,21.7,21.8,25.9,26,25.8,25.9,26,26.1,26.3,26.4,26,25.8,25.6,25.8,26,26.4,17.2,17.5,17.5,17.4,17.4,17.3,17.1,17,17,17,17.1,17.3,17.2,17
-75,6.35,23085210,CP,Violetas Las,San Rafael,Antioquia,1016,22.5,22.7,22.9,23,23.2,23.1,23,23.1,22.9,22.6,22.5,22.5,22.8,28.3,28.9,29,28.9,29.2,29.3,29.3,29.6,28.9,28.8,28.2,27.9,28.9,29.6,17.5,17.7,18.2,18.5,18.1,18,17.5,17.4,17.9,18,18.1,18,17.9,17.4
-74.84,6.49,23085080,CP,Nus Gja Exp El,San Roque,Antioquia,835,23.3,23.8,23.8,23.8,23.7,23.7,23.7,23.8,23.6,23.2,23.1,23.2,23.5,28.2,28.7,28.5,28.3,28,28.2,28.5,28.7,28.1,27.7,27.4,27.7,28.2,28.7,17.8,18.1,18.5,18.9,19.1,19,18.4,18.5,18.8,18.9,19,18.9,18.7,17.8
-75.25,6.31,23085160,CO,Corrientes,San Vicente,Antioquia,1950,17.2,17.3,17.4,17.6,17.8,17.7,17.4,17.6,17.4,17.3,17.2,17.3,17.4,21.9,22.4,22,22.5,22.5,22.7,22.4,22.7,22.7,22.1,21.8,21.8,22.2,22.7,12.1,12.4,12.6,13.1,13.2,12.5,12.1,12.1,12.6,12.8,12.8,12.4,12.5,12.1
-75.83,6.53,27015110,CO,Aragon,Santa Rosa de Osos,Antioquia,2600,13,13.1,13.2,13.5,13.8,13.7,13.5,13.5,13.4,13.2,13.1,13.1,13.3,18.3,18.6,18.5,18.3,18.5,18.2,18,18.1,18.1,17.8,17.9,18.1,18.2,18.6,6.2,6.4,7.2,8.5,9.1,8.4,7.8,7.7,8,8,7.7,6.9,7.7,6.2
-75.83,6.53,26225030,AM,Cotove Hda,Santafe de Antioquia,Antioquia,530,27.9,28.4,28.4,27.5,26.7,26.6,26.8,27.1,26.4,26,26.3,26.8,27,35.5,36,35.6,34.9,33.9,33.6,34.2,34.8,34.1,33.5,33.4,34.1,34.5,36,20.1,20.7,20.8,21,20.8,20.6,20.4,20.3,20.2,20.4,20.2,20.2,20.4,20.1
-75.15,6.54,27015190,CO,Guayabito,Santo Domingo,Antioquia,1700,21.1,21.4,21.6,21.5,21.6,21.7,21.6,21.7,21.4,21.1,21,21,21.4,26.2,26.7,26.7,26.4,26.3,26.8,27.2,27.4,26.8,25.9,25.7,25.7,26.5,27.4,15.9,16.1,16.3,16.5,16.6,16.4,16,16.1,16.1,16.1,16.3,16.3,16.2,15.9
-74.85,5.86,23075010,CP,Rio Claro,Sonson,Antioquia,449,,,,,,,,,,,,,,31.3,31.6,31.2,31.1,31.2,31.3,32.2,32.4,31.7,30.8,30.5,30.7,31.4,32.4,21.4,21.5,21.5,21.5,21.6,21.3,20.9,20.8,21,21.2,21.4,21.5,21.3,20.8
-75.69,5.72,26175030,CP,ciol Gja La,Tamesis,Antioquia,1151,22.7,23.4,23.4,22.9,22.5,22.5,22.7,23,22.4,21.8,22,22.1,22.6,28,29,28.9,27.7,27,27.2,27.8,28.3,27.5,26.5,26.5,26.9,27.6,29,18.3,18.6,18.8,18.8,18.8,18.6,18.2,18.3,18.3,18.2,18.5,18.4,18.5,18.2
-75.67,7.04,26235030,CO,Matanzas,Toledo,Antioquia,500,,,,,,,,,,,,,,32.8,33.8,33.6,32.7,31.8,31.2,31.3,31.4,31,30.9,31.1,31.6,32,33.8,,,,,,,,,,,,,,
-76.72,8.09,12025040,CO,Turbo,Turbo,Antioquia,37,27.2,27.2,27.3,27.5,27.4,27.5,27.2,27.4,27.4,27.3,27.2,27.1,27.3,31,30.8,30.9,31.2,31.7,31.6,31.7,31.7,31.9,32.2,31.7,31.2,31.5,32.2,23.8,23.9,24.3,24.3,24,23.8,23.7,23.5,23.6,23.4,23.5,23.7,23.8,23.4
-76.16,6.36,11075010,CO,Honda La,Urrao,Antioquia,1850,16.6,16.7,16.9,17,17.1,16.9,16.8,16.8,16.6,16.5,16.7,16.5,16.8,21.6,21.8,21.6,21.6,21.9,21.7,21.7,21.9,21.4,21.2,21,21,21.6,21.9,12.1,12.5,12.8,13.1,12.9,12.6,12.7,12.7,12.6,12.6,12.7,12.3,12.7,12.1
-76.14,6.32,11075020,CO,Urrao,Urrao,Antioquia,1850,17.3,17.4,17.6,17.6,17.6,17.6,17.5,17.5,17.2,17,17.1,17.2,17.4,22.7,23,23,22.7,22.5,22.7,22.9,23,22.5,21.9,21.7,22,22.5,23,12.9,13.3,13.4,13.9,14.1,13.8,13.4,13.3,13.4,13.3,13.5,13.4,13.5,12.9
-75.44,7.16,26255020,CP,Sta Isabel,Valdivia,Antioquia,1200,21.2,21.4,21.7,21.8,22,22,21.9,22,21.7,21.5,21.4,21.2,21.6,24.3,24.7,25.1,25.3,25.6,25.6,25.7,25.7,25.5,25.2,24.8,24.3,25.2,25.7,18.6,18.6,18.8,19.1,19.2,19.1,18.8,18.8,18.8,18.8,19,18.9,18.9,18.6
-74.8,6.77,23105030,CO,Vegachi,Vegachi,Antioquia,995,22.1,22.5,22.7,22.7,22.7,22.8,22.8,22.9,22.5,22.2,22,22,22.5,27.1,27.6,27.5,27.3,27.2,27.2,27.6,27.8,27.2,26.6,26.4,26.6,27.2,27.8,17.2,17.7,17.9,18.2,18.3,18.1,17.8,17.9,18,18,17.9,17.5,17.9,17.2
-75.72,5.93,26205020,CP,Rosario El,Venecia,Antioquia,1600,20.3,20.7,21,20.3,20.1,20.5,20.8,20.6,19.9,19.1,19.4,19.9,20.2,25,25.6,26.1,24.9,24.5,25,25.4,25.2,24.6,23.6,23.8,24.4,24.8,26.1,16,16.3,16.5,16.3,16.1,16.2,16,16,15.6,15.4,15.8,16.1,16,15.4
-70.74,7.07,37055010,SP,Apto Arauca,Arauca,Arauca,128,27.4,28.3,28.8,27.7,26.6,25.8,25.7,26.1,26.6,26.8,26.9,26.9,26.9,33.1,34.3,34.6,33.2,31.2,30,29.9,30.6,31.5,31.7,31.5,31.9,32,34.6,20.6,21.2,22.2,22.9,23,22.8,22.6,22.7,22.8,22.9,22.9,21.9,22.4,20.6
-71.89,6.95,37045010,CO,Sarave,Sarave,Arauca,148,25.5,26.2,26.4,26,25.6,24.9,24.9,25.1,25.5,25.7,25.7,25.4,25.5,30.6,31.4,31.5,30.8,30.6,29.6,29.6,30,30.7,31.1,30.9,30.6,30.6,31.5,20.5,21.2,21.4,21.6,21.3,20.8,20.6,20.4,20.5,20.7,20.6,20.6,20.8,20.4
-71.75,6.46,36025010,CO,Tame,Tame,Arauca,350,26.3,26.5,26.7,26.2,26,25.5,25.4,25.5,25.7,26,26.1,26.3,26,32,32.1,32,32.3,31.5,31.1,30.9,31.2,31.5,32.1,32.1,31.8,31.6,32.3,22.9,22.9,22.9,22.7,22.5,22,22.1,22,22.2,22.5,22.6,22.4,22.5,22
-74.82,11.04,29045120,CP,Flores Las,Barranquilla,Atlantico,2,26.7,26.6,26.9,27.5,28.2,28.4,28.2,28.3,28.2,28,27.9,27.3,27.7,29.1,28.9,29.4,30.1,31,31.3,30.9,31.2,31.4,31,30.7,29.7,30.4,31.4,25.2,25.1,25.4,25.6,26,26.2,26,26,25.7,25.6,26,25.7,25.7,25.1
-75.05,10.85,29045110,CO,Juan de Acosta,Juan de Acosta,Atlantico,20,27.4,27.5,27.7,28.2,28.2,28.1,28.1,28.2,27.8,27.6,27.6,27.5,27.8,32.3,32.8,33.2,33.4,32.8,32.6,32.7,32.8,32.2,31.8,31.7,32.1,32.5,33.4,23.1,23.4,24.1,25,25,24.5,24.4,24.5,24.1,23.8,23.7,23.3,24,23.1
-74.95,10.45,29035080,CP,Normal Mati,Mati,Atlantico,10,27.7,28,28.1,28.1,27.7,27.8,27.8,27.8,27.5,27.2,27.3,27.5,27.7,35.4,36,36.2,35.7,34.3,34.2,34.4,34.4,33.6,33.1,33.2,34.2,34.6,36.2,22.3,23.1,23.7,24.4,24.4,24.3,24.1,24.1,23.9,23.8,23.6,22.9,23.7,22.3
-75.12,10.5,29035070,CP,Repelon,Repelon,Atlantico,10,28.2,28.4,28.8,29,28.6,28.7,28.7,28.5,28.1,27.7,27.8,28.1,28.4,35.4,36,36.4,35.9,34.4,34.6,34.9,34.4,33.8,33,33.2,34.4,34.7,36.4,22.8,23.3,23.6,24.4,24.6,24.5,24.3,24.4,24.2,24.2,24.1,23.6,24,22.8
-74.78,10.88,29045020,SP,A.E Cortissoz,Soledad,Atlantico,14,26.7,26.8,27.2,27.8,28.2,28.2,28,28.1,27.8,27.4,27.5,27.1,27.6,31.4,31.7,32.4,33.1,33.4,33.2,32.9,33.3,33,32.5,32.2,31.7,32.6,33.4,23.6,23.9,24.2,24.9,24.9,24.8,24.6,24.6,24.1,23.9,24.1,24,24.3,23.6
-74.15,4.71,21205790,SP,Apto El Dorado,Bogota DC,Bogota DC,2547,13.3,13.7,13.9,14.1,14.1,13.9,13.5,13.6,13.5,13.5,13.6,13.4,13.7,19.9,20,19.8,19.5,19.3,18.8,18.4,18.7,19.1,19.2,19.3,19.7,19.3,20,6,7.1,7.9,9.1,9.1,8.6,8.1,7.9,7.4,8.1,8.2,6.9,7.9,6
-74.05,4.8,21206260,CO,C.Univ.Agrop-Udca,Bogota DC,Bogota DC,2570,13.8,13.9,14,14,14.1,14,13.8,13.8,13.7,13.8,13.8,13.9,13.9,20.2,20.4,20.1,19.5,19.3,18.9,18.7,18.9,19.1,19.3,19.4,19.9,19.5,20.4,5.8,6.4,7,8,8.2,7.8,7.5,7.2,6.8,7.2,7.4,6.7,7.2,5.8
-74.17,4.5,21206300,CP,Do Jua,Bogota DC,Bogota DC,2700,10.5,10.2,10.1,10.1,9.5,9.7,7.5,9.7,9.9,9.9,9.1,8.8,9.3,15.3,14.8,14.4,13.8,12.5,11.3,10.1,13.1,13.7,13.9,12.6,12.6,12.8,15.3,6.4,6.5,7,7.4,7.1,6.8,5.6,7.2,6.8,6.8,6.2,5.7,6.4,5.6
-74.15,4.7,21205520,CP,Eldorado Didactica,Bogota DC,Bogota DC,2546,13.6,14.1,14.2,14.5,14.5,14.4,13.9,13.9,13.9,13.8,13.9,13.7,14,20,20.2,20.1,19.9,19.6,18.8,18.3,18.8,19.3,19.3,19.4,19.9,19.5,20.2,5.3,6.9,7.1,8.5,8.7,8.1,7.6,7.3,6.8,7.3,7.5,6.2,7.3,5.3
-74.05,4.79,21206050,CP,Esc Col Ingenieria,Bogota DC,Bogota DC,2650,13.8,14.5,14.4,14.5,14.4,14,13.5,13.6,13.8,14.1,14.2,13.8,14.1,20.9,20.9,20.6,20.1,19.7,18.9,18.5,18.7,19.4,19.8,20,20.4,19.8,20.9,6.5,7.5,8.1,9.1,9.3,8.7,8.3,8.1,7.6,8.2,8.3,7.1,8.1,6.5
-74.1,4.67,21205710,CO,Jardin Botanico,Bogota DC,Bogota DC,2552,15,15.1,15.1,15.2,15.3,15.2,14.9,15,15,14.9,15,15,15.1,21,21,20.7,20.4,20.4,20.1,19.9,20,20.3,20.3,20.3,20.7,20.4,21,7.5,7.9,8.7,9.5,9.6,9.1,8.5,8.7,8.2,8.6,8.7,8,8.7,7.5
-74.19,4.2,35025070,CO,Taques Los,Bogota DC,Bogota DC,3150,9.3,9.3,9.5,9.4,9.5,9.1,8.6,8.6,9,9.3,9.7,9.5,9.2,14.1,14.1,13.5,13,13,12.2,11.6,11.9,12.6,13.1,13.4,13.9,13,14.1,3.8,4.2,5,5.7,6,5.7,5.5,5.2,5,5.1,5.3,4.8,5.1,3.8
-74.09,4.64,21206220,CP,Univ ciol,Bogota DC,Bogota DC,2556,14.6,14.8,15,15.2,15.3,15,14.4,14.5,14.6,14.8,14.9,14.9,14.9,19.9,20.1,19.9,19.6,19.3,18.8,18,18.2,19.2,19.5,19.6,19.7,19.3,20.1,7.8,8.7,9.6,10.3,10.3,10.1,9.4,9.2,8.8,8.8,8.9,8.7,9.2,7.8
-74.15,4.66,21206230,CO,Vegas Las Hda,Bogota DC,Bogota DC,2543,13.1,13.5,13.7,13.9,14,13.8,13.5,13.5,13.5,13.7,13.6,13.4,13.6,20,20.2,20,19.8,19.7,19.4,19.1,19.2,19.6,19.7,19.5,19.9,19.7,20.2,6.1,7.2,8.1,9,9.3,8.8,8.2,8,7.3,8,8.2,7.2,7.9,6.1
-74.06,4.6,21205580,CO,Vedo Oro Vivero,Bogota DC,Bogota DC,2725,12.9,13.1,13.3,13.4,13.2,13,12.5,12.6,12.8,12.9,12.8,12.8,13,19.6,18.9,18.8,18.7,18.6,18.1,17.5,17.7,18.3,18.3,18.3,18.8,18.4,19.6,7.9,8.5,9,9.5,9.7,9.4,9,8.6,8.6,8.7,8.9,8.1,8.9,7.9
-75.28,10.14,29035170,CP,Sincerin,Arjo,Bolivar,10,27.4,27.7,28.1,28.2,27.9,28,28.1,27.7,27.4,27.2,27.3,27.3,27.7,34,34.8,34.9,34.5,32.9,33.3,33.1,33.1,32.5,32,31.8,32.4,33.2,34.9,21.6,22,22.4,23.8,24,24.1,24,23.8,23.7,23.5,23.2,22.4,23.2,21.6
-75.52,10.45,14015020,SP,Apto Rafael Nunez,Cartage,Bolivar,2,26.7,26.8,27.1,27.8,28.3,28.5,28.3,28.4,28.3,28,27.9,27.2,27.8,30.6,30.7,30.8,31.2,31.5,31.8,31.8,31.8,31.5,31.2,31.2,30.9,31.2,31.8,23.9,24.2,24.8,25.6,25.9,25.9,25.6,25.7,25.6,25.4,25.4,24.6,25.2,23.9
-75.54,10.39,14015030,CP,Esc val Cioh,Cartage,Bolivar,1,26.9,26.9,27.2,27.7,28.2,28.4,28.2,28.3,28.2,27.9,27.9,27.3,27.8,29.9,30.1,30.3,30.6,31.1,31.1,31.2,31.4,30.9,30.4,30.6,30.4,30.7,31.4,23.5,23.3,24.1,24.8,25.4,25.4,24.9,25,25,25,24.9,24,24.6,23.3
-75.11,9.72,29015020,AM,Carmen de Bolivar,El Carmen de Bolivar,Bolivar,152,27.2,27.8,28.1,28,27.6,27.7,27.8,27.5,26.9,26.5,26.6,26.9,27.4,34.2,35,35,34.1,32.8,32.9,33.7,33.4,32.3,31.7,32,33,33.4,35,19.7,20.2,21.3,22.4,22.7,22.5,22.3,22.3,22.2,21.9,21.6,20.3,21.7,19.7
-74.97,10.04,29015030,CO,Guamo El,El Guamo,Bolivar,75,28.1,28.6,28.9,28.8,28.2,28.1,28.2,28.1,27.7,27.1,27.3,27.6,28.1,35.7,36.3,36.2,35.3,33.7,34,34.5,34.2,33.5,32.6,32.9,34.2,34.4,36.3,20.7,21.5,22.2,23.3,23.6,23.3,23.1,23.3,23.2,22.9,22.6,21.6,22.7,20.7
-74.85,9.28,25025100,CP,Apto Baracoa,Magangue,Bolivar,18,28,28.8,29.1,29,28.2,28.1,28.3,28.2,27.6,27.3,27.4,27.7,28.1,34,34.7,35.2,34.4,32.9,32.5,33,33,32.1,31.6,32,33.1,33.1,35.2,22.2,22.8,23.5,24.2,24,23.5,23.7,23.5,23.1,23.2,23.4,23.1,23.3,22.2
-75.35,9.94,29035040,CP,Nueva Florida,Maria La Baja,Bolivar,13,26.8,27.3,27.5,27.7,27.7,27.6,27.5,27.3,26.9,26.7,26.8,26.7,27.2,33.9,34.1,34.2,33.8,32.8,32.8,33,33,32.4,32,32.1,32.8,33.1,34.2,20.8,21.4,22.2,23.3,23.8,23.4,23,22.9,22.7,22.7,22.9,21.7,22.6,20.8
-75.33,9.88,29035030,CO,Presa Ay Grande,Maria La Baja,Bolivar,60,27.8,28,28.3,28.4,28,27.9,28.1,27.9,27.7,27.3,27.5,27.8,27.9,,,,,,,,,,,,,,,22.5,23,23.3,24.3,24.4,23.8,24.5,24.1,24,23.6,23.9,22.7,23.7,22.5
-75.26,10.04,29035110,CO,San Pablo,Maria La Baja,Bolivar,20,27.3,27.9,28.2,28.2,27.8,27.9,27.8,27.8,27.4,27,27.1,27.1,27.6,34,34.5,34.4,34.5,32.9,33,33.1,33.1,32.7,32,32.2,33,33.3,34.5,21.6,22.2,23,23.8,23.9,23.8,23.5,23.4,23.5,23.3,23.2,22.3,23.1,21.6
-74.48,8.3,25025230,CO,Montecristo,Montecristo,Bolivar,100,28.3,28.3,28,28.1,27.8,27.9,27.9,27.9,27.7,27.5,27.7,27.8,27.9,,,,,,,,,,,,,,,,,,,,,,,,,,,,
-74.47,8.92,25025210,CO,Pinillos,Pinillos,Bolivar,10,28.8,28.9,29.1,28.9,28.7,28.8,28.8,28.7,28.6,28.4,28.4,28.7,28.7,33.9,34.2,34.4,33.9,33.3,33.5,33.3,33.3,33.3,33.3,32.9,33.4,33.5,34.4,24.1,24,24.1,24,23.9,24.1,24.2,24.1,23.9,24.3,24.6,24.8,24.2,23.9
-74.05,8.53,25025220,CO,Norosi,Rio Viejo,Bolivar,160,28.2,28.9,29.1,28.8,28.1,28.1,28.3,28.1,27.5,27.3,27.5,27.9,28.2,34.6,35.3,35.2,34.4,33.4,33.7,34.1,33.7,32.9,32.4,32.8,33.8,33.9,35.3,22.8,23.5,24.1,24.1,23.6,23.4,23.1,23.3,22.9,22.9,23.2,22.7,23.3,22.7
-73.93,7.48,23205020,CO,Col Cooperativo,San Pablo,Bolivar,165,28.7,28.9,28.8,28.2,28.1,28.3,28.4,28.3,27.9,27.6,27.8,28.4,28.3,33.7,34,33.7,32.8,32.5,32.8,33.1,32.8,32.3,31.8,32,32.9,32.9,34,23.2,23.3,23.6,23.6,23.5,23.5,23.3,23.3,23.2,23.2,23.4,23.4,23.4,23.2
-75.26,10.79,14015010,CP,Galerazamba,Santa Catali,Bolivar,20,26.5,26.5,26.8,27.3,27.8,27.9,27.8,27.7,27.6,27.5,27.6,27,27.4,29,29.3,29.5,30,30.9,31,30.8,31,30.8,30.5,30.2,29.4,30.3,31,23.9,23.8,24.5,25.1,25.6,25,24.8,25,24.9,24.8,24.8,24.3,24.7,23.8
-74.24,7.89,23205050,CO,Canelos,Santa Rosa del Sur,Bolivar,750,21.8,22.1,22.3,22.1,22.2,22.3,22.3,22.4,22,21.7,21.6,21.7,22,27,27.6,27.5,26.9,26.8,27.3,27.3,27.5,26.9,26.4,26,26.6,27,27.6,16.4,17,17.8,18.3,18.4,18.1,17.8,17.9,18,18,17.7,17.1,17.7,16.4
-74.06,7.97,23205030,CO,Sta Rosa D Simiti,Santa Rosa del Sur,Bolivar,650,25.3,25.9,25.8,25.1,24.7,24.9,25,24.9,24.4,24,24.2,24.7,24.9,30.3,31.1,30.5,29.2,28.5,28.6,29,28.9,28.4,28,28.2,29.2,29.2,31.1,20.7,21.2,21.6,21.5,21.3,21.3,21.1,20.9,20.7,20.5,20.8,20.9,21,20.5
-74.84,9.74,25025020,CP,Monterrey Forestal,Zambrano,Bolivar,25,28.5,28.8,29,28.9,28.4,28.4,28.3,28.1,27.9,27.7,27.9,28,28.3,34.4,34.8,34.9,34.3,33.8,33.7,34,33.9,33.1,32.8,32.9,33.3,33.8,34.9,21.1,21.6,22.5,22.8,23,22.9,22.9,23,22.6,22.9,22.5,21.8,22.5,21.1
-72.81,5.91,24035020,CO,Beteitiva,Beteitiva,Boyaca,2575,15.2,15.5,15.4,15.6,15.5,15.2,14.8,14.9,14.8,15.1,15.2,15.3,15.2,23.2,23.8,23.2,23.3,22.5,21.9,21.7,22,22.1,22.6,22.3,22.6,22.6,23.8,8.2,8.3,8.7,9.4,9.4,9.5,9,9.3,8.8,9.2,9.4,8.6,9,8.2
-72.58,6.33,24035330,AM,Boavita,Boavita,Boyaca,2150,17.9,18,18.1,17.5,17.1,17.1,16.9,17.2,17.1,16.9,17.1,17.4,17.4,25.3,25.6,25.2,24,23.4,23.2,23.5,23.9,23.9,23.3,23.2,24.1,24,25.6,10.7,11.1,11.6,12.2,12.2,11.7,11.2,11.3,11.2,11.7,11.8,11.1,11.5,10.7
-73.94,5.51,23125100,CP,Buevista,Buevista,Boyaca,2200,15.7,15.7,15.8,16,16.2,16.1,16.2,16.2,16.2,16.1,15.8,15.8,16,18.9,18.9,18.8,18.9,19.3,19.2,19.4,19.7,19.7,19.2,18.7,18.6,19.2,19.7,9.4,9.8,10.1,10.2,10.6,10.1,9.9,9.8,9.9,10.3,10.1,9.5,10,9.4
-73.1,5.03,35085050,CO,Campohermoso,Campohermoso,Boyaca,1300,21.7,21.9,21.8,21.2,20.8,20.3,19.9,20.2,20.9,21.4,21.4,21.4,21.1,27.1,27.6,26.8,26.1,25.3,24.5,24,24.6,25.9,26.4,26.2,26.3,25.9,27.6,16.6,17.2,17.7,17.9,17.6,17.2,16.7,16.8,16.8,17.2,17.4,17,17.2,16.6
-72.5,6.55,24035310,CO,Chiscas,Chiscas,Boyaca,2350,17.3,17.4,17.4,17.1,16.8,16.6,16.4,16.6,16.7,16.6,16.8,17,16.9,23,23.2,22.9,22,21.4,21,21,21.3,21.5,21.3,21.3,22,21.9,23.2,9.8,10.4,10.7,11.3,11.5,11,10.7,10.7,10.6,10.7,10.5,9.8,10.7,9.8
-72.47,6.19,24035250,CO,Chita,Chita,Boyaca,2888,11.6,12,12.4,12.5,12.2,11.6,11.1,11.3,11.5,11.8,11.9,11.7,11.8,18.4,18.6,18.7,17.8,17.1,16.1,15.4,15.7,16.4,17,17.2,17.9,17.2,18.7,5.2,5.8,6.7,7.5,7.8,7.5,7.1,7,6.7,6.8,6.7,5.7,6.7,5.2
-72.12,7.01,37035010,CO,Tunebia,Cubara,Boyaca,370,23.9,24.1,24.3,24.5,24.5,23.9,23.7,24.1,24.6,24.9,24.8,24.3,24.3,29.3,29.6,29.6,29.6,29.6,28.8,28.5,29.1,30,30.2,30,29.5,29.5,30.2,19.2,19.6,20.2,20.7,20.7,20.4,20.3,20.6,20.5,20.5,20.4,20.1,20.2,19.2
-72.94,5.57,35095030,CO,Tunel El,Cuitiva,Boyaca,3000,11.6,11.7,11.8,11.8,11.8,11.4,10.9,10.9,11.2,11.4,11.6,11.8,11.5,16.9,16.8,17,16.3,15.8,14.9,14.5,14.5,15.2,15.7,16.1,16.6,15.8,17,6.8,7.3,7.6,8.2,8.5,8.2,7.7,7.7,7.5,7.6,7.9,7.4,7.7,6.8
-73.16,5.97,24025030,CP,Sierra La,Duitama,Boyaca,2700,11.9,12,12.1,12.3,12.4,12.3,12.2,12.3,12.1,11.9,11.9,11.9,12.1,17.3,17.6,17.5,17.3,17.2,17.4,17.1,17.4,17.2,16.8,16.6,16.7,17.2,17.6,7.4,7.8,7.9,8.5,8.5,8.3,7.9,8,8,8.1,8.1,7.7,8,7.4
-73.07,5.8,24035120,AM,Surbata Bonza,Duitama,Boyaca,2485,14.3,14.6,14.9,14.9,14.6,14,13.7,13.7,13.8,14,14.3,14.1,14.2,22.5,22.7,22.6,21.8,21.3,20.8,20.4,20.5,20.9,21.2,21.5,22,21.5,22.7,5,5.5,6.6,8.2,7.9,6.8,6,6.1,5.9,7.1,7.5,6.3,6.6,5
-72.41,6.46,24035070,CO,Guican,Guican,Boyaca,2963,13.5,13.6,13.7,13.4,13.2,13,12.9,12.9,12.9,12.9,12.9,13.2,13.2,20.1,20.6,20.2,18.8,18.4,18.3,18.1,18.5,18.7,18.5,18.4,19.2,18.9,20.6,7.3,7.6,8.1,8.8,9.1,8.8,8.3,8.1,8.2,8.3,8.2,7.6,8.2,7.3
-72.37,6.41,24035240,CO,Sierra Nevad Cocuy,Guican,Boyaca,3716,7.2,6.9,7,6.8,6.7,6.7,6.6,6.6,6.6,6.5,6.6,6.9,6.8,13.2,12.4,12.2,11.4,11.1,11.2,11.2,11.3,11.3,11.2,11.4,12,11.7,13.2,-0.5,-0.1,0.8,1.3,1.7,1.7,1.4,1.4,1.4,1.4,1.3,0.6,1,-0.5
-72.55,6.25,24035010,CO,Cusagui,La Uvita,Boyaca,2950,12.7,12.6,12.7,12.8,12.8,12.3,11.8,12,12.1,12.3,12.5,12.8,12.4,19.2,19.8,19.2,17.7,17.6,17.2,16.5,17,17.4,17.5,17.2,18.4,17.9,19.8,7.7,7.9,8.4,9,9,8.6,8.2,8.2,8.2,8.5,8.6,8.1,8.3,7.7
-73.32,4.94,35075040,CP,Inst Agr Macal,Macal,Boyaca,1300,17.5,17.8,17.9,17.7,17.3,16.6,16.2,16.4,16.9,17.4,17.6,17.4,17.2,23.5,24.1,23.5,22.6,21.9,21,20.5,21.1,22.1,22.7,22.3,22.7,22.2,24.1,12.9,13.4,14.1,14.6,14.4,13.9,13.3,13.3,13.3,13.6,14.1,13.5,13.7,12.9
-73.14,5.19,35085040,CO,Vivero El,Miraflores,Boyaca,1640,19.1,19.6,19.6,19.4,18.9,18.2,17.8,17.8,18.4,18.8,18.9,18.9,18.8,25.3,26.2,25.8,24.8,24,22.8,22.2,22.2,23.8,24.3,24.3,24.6,24.1,26.2,14.2,14.7,15,15.1,14.7,14.4,14.1,14.2,14.2,14.5,14.6,14.5,14.4,14.1
-73.6,5.88,24015020,CO,Bertha,Moniquira,Boyaca,1700,19,19.3,19.6,19.5,19.3,19.1,18.7,18.9,18.9,18.8,19.1,19,19.1,26.7,26.7,27,26.5,26.3,26,25.8,26.1,26.1,25.7,26,26.2,26.3,27,12.8,13.1,13.6,14.5,14.4,13.4,12.5,12.6,13,13.9,14.1,13.2,13.4,12.5
-72.89,5.78,24035150,CP,Belencito,Nobsa,Boyaca,2530,15.8,16.1,16.2,16,15.7,15.3,14.9,15,15.1,15.4,15.8,15.6,15.6,23.7,23.8,23.6,22.2,21.8,21.1,20.7,21,21.4,22,22.3,22.5,22.1,23.8,7.6,8,9.1,10,10,9.3,8.8,8.7,8.5,9.2,9.3,8.3,8.9,7.6
-73.46,5.35,35075010,AM,Nuevo Colon,Nuevo Colon,Boyaca,2438,14.7,14.8,15.1,15,14.6,13.9,13.3,13.4,13.9,14.4,14.7,14.6,14.4,21.9,22.1,21.8,20.6,19.7,18,17.2,17.5,18.8,19.8,20.5,20.9,19.9,22.1,9.1,9.7,10.3,10.9,11,10.5,10,9.9,9.5,10,10.3,9.6,10.1,9.1
-74.18,5.66,23125080,CO,Otanche,Otanche,Boyaca,1070,22.2,22.3,22.5,22.6,22.8,22.9,22.7,22.9,22.7,22.3,22.2,22.2,22.5,26.1,26.4,26.3,26.5,26.8,26.9,27,27.3,26.9,26.4,26,26,26.5,27.3,18.7,18.8,18.8,18.7,18.8,18.7,18.5,18.8,18.4,18.5,18.5,18.7,18.6,18.4
-73.12,5.75,24035170,AM,Tunguavita,Paipa,Boyaca,2470,14.7,15.1,15.3,15.3,15,14.5,14.1,14.1,14.2,14.6,14.9,14.6,14.7,22.9,23.1,22.8,21.7,21.2,20.6,20.3,20.5,20.9,21.2,21.5,22,21.6,23.1,5.7,6.5,7.5,8.8,8.7,7.6,6.7,6.7,6.7,7.9,8.3,6.8,7.3,5.7
-72.72,5.41,35195050,CO,Corinto,Pajarito,Boyaca,1550,19.1,19.5,19.4,19.1,18.9,18.4,18,18.1,18.5,18.9,19,19.2,18.8,24.1,24.8,24.2,23.7,23.5,22.8,22.1,22.7,23.4,23.7,23.5,24,23.5,24.8,13.4,14.1,14.6,15,15,14.7,14.3,14.2,14.1,14.3,14.4,13.6,14.3,13.4
-74.57,5.98,23115010,CO,Pto Boyaca,Puerto Boyaca,Boyaca,350,28,28.2,27.8,27.6,27.8,27.9,28.3,28.4,27.6,27,27.1,27.5,27.8,32.7,33.2,32.5,32,32.2,32.8,33.5,33.8,32.6,31.4,31.3,31.8,32.5,33.8,23.7,23.7,23.4,23.1,23.1,23.3,23.1,23.1,22.9,22.7,23.1,23.6,23.2,22.7
-74.18,5.52,23125140,CO,Apto Furate,Quipama,Boyaca,1250,21.8,21.8,21.7,21.6,21.7,21.7,21.8,22.1,21.9,21.7,21.5,21.7,21.8,27,27,27.2,26.9,26.9,27.3,27.9,28.1,27.5,27,26.8,26.8,27.3,28.1,17.7,17.7,17.8,17.6,17.8,17.8,17.6,17.6,17.6,17.8,17.9,17.9,17.7,17.6
-73.35,5.42,35075030,CO,Villa Luisa,Ramiriqui,Boyaca,2200,16.7,17,17.3,17.1,16.8,16.1,15.6,15.6,16,16.5,16.7,16.7,16.5,23.2,23.6,23.3,22.5,21.7,20.8,20.3,19.8,21.2,21.9,22.3,22.7,21.9,23.6,10.6,11.1,12,12.6,12.7,12.2,11.9,11.7,11.3,11.7,12.1,11.5,11.8,10.6
-73.2,5.36,35085020,CO,Rondon,Rondon,Boyaca,2120,16.5,16.6,16.6,16.3,16.1,15.4,15.1,15.2,15.8,16.1,16.3,16.3,16,22.7,23,22.4,21.3,20.7,19.2,18.5,19.1,20.9,21.6,21.7,22,21,23,12.2,12.6,12.8,13,12.8,12.3,11.9,11.8,12.2,12.5,12.8,12.5,12.4,11.8
-73.5,5.51,24015220,CP,Villa Carmen,Samaca,Boyaca,2600,14,14.2,14.4,14.5,14.4,13.8,13.3,13.3,13.7,14,14.1,14,14,19.9,20,20.1,19.5,19.2,18.2,17.6,17.7,18.4,19.1,19.2,19.4,19.1,20.1,7.4,8.4,8.9,9.4,9.5,9.2,8.7,8.6,8.1,8.5,8.9,7.9,8.6,7.4
-73.6,5.71,24015090,CO,Inst Agr Sta Sofia,Santa Sofia,Boyaca,2300,16.1,16.3,16.3,16.4,16.4,16.2,15.9,16.1,16.1,16,15.9,15.9,16.1,21.9,22.4,22.2,21.9,21.6,21.4,21.1,21.4,21.8,21.6,21.2,21.4,21.6,22.4,10.5,10.7,11.2,11.7,11.9,11.6,11.3,11.5,11.3,11.1,11.1,10.9,11.2,10.5
-72.7,6.13,24035320,CO,Sativanorte,Sativanorte,Boyaca,2594,15.5,15.5,15.5,15.5,15.4,15.2,15,15.1,15.2,15.1,15.1,15.3,15.3,21.2,21.5,21.4,20.7,20.2,19.8,19.6,19.7,20.1,20,20,20.5,20.4,21.5,9.4,9.6,10,10.7,10.7,10.3,10,10,9.9,10.1,10.2,9.7,10,9.4
-72.53,6.01,35235010,CO,Cardon El,Socota,Boyaca,3590,6.6,6.5,6.6,6.6,6.5,5.9,5.4,5.4,5.7,6.2,6.6,6.6,6.2,10.8,10.8,10.7,9.8,9.5,8.6,8,8.1,8.5,9.2,10,10.6,9.5,10.8,2.9,3,3.5,4.1,4,3.5,3.1,3.2,3.3,3.6,3.7,3.1,3.4,2.9
-72.97,5.68,24035340,CP,Apto A Lleras C,Sogamoso,Boyaca,2500,13.9,14.2,14.6,14.8,14.6,14.2,13.9,13.8,13.9,14.2,14.6,14.1,14.2,22.7,22.7,22.4,21.5,21,20.4,20,20,20.5,20.9,21.4,22,21.3,22.7,3.4,4.3,5.9,7.5,7.6,6.7,5.9,5.9,5.6,6.7,7.2,5,6,3.4
-73.45,5.02,35075020,CP,Sutatenza,Sutatenza,Boyaca,1930,18.2,18.3,18.4,18.2,17.9,17.2,16.9,17,17.6,18,18.2,18.3,17.8,24.3,24.4,24.1,23.3,22.5,21.4,20.9,21.4,22.7,23.4,23.6,23.9,23,24.4,13.3,13.8,14.5,14.6,14.4,13.8,13.3,13.5,13.3,13.8,14.1,13.6,13.8,13.3
-73.21,5.58,24035040,CO,Copa La,Toca,Boyaca,2700,13.2,13.6,13.9,14,13.8,13.4,13.1,13.2,13.3,13.6,13.8,13.5,13.5,20.2,20.8,20.7,19.8,18.9,18.2,18,18.3,18.8,19.1,19.3,19.8,19.3,20.8,5.5,6.2,7.6,8.4,8.4,7.6,7.2,7.3,7,7.4,7.8,6.7,7.2,5.5
-73.36,5.55,24035130,CP,U P T C,Tunja,Boyaca,2690,13.3,13.6,13.9,13.8,13.5,12.7,12.2,12.3,12.7,13.2,13.4,13.2,13.1,19.6,19.8,19.8,18.7,17.8,16.8,16.4,16.7,17.7,18.3,18.6,18.8,18.3,19.8,7.3,8.3,9,9.8,9.8,9.2,8.6,8.5,8.2,8.8,9,8.1,8.7,7.3
-73.54,5.66,24015300,CP,Villa de Leiva,Villa de Leyva,Boyaca,2215,16.7,17.1,17.2,17.3,17.2,17.1,16.8,16.9,17,16.7,16.7,16.6,16.9,23.4,23.7,23.6,23.2,23,22.5,22.3,22.6,23,22.9,22.4,22.9,23,23.7,10,10.7,11.3,11.8,11.8,11.3,10.8,10.9,10.8,11,11.3,10.7,11,10
-75.34,5.58,26185010,CO,Pelada La,Aguadas,Caldas,2180,16.7,17,16.8,16.8,16.8,16.8,17.1,17.1,16.7,16.3,16.1,16.3,16.7,21.4,21.8,21.9,21.7,21.5,21.7,22.1,21.9,21.5,20.7,20.4,20.7,21.5,22.1,12,12.1,12.3,12.2,12.5,12.5,12.2,12.1,12.3,12.3,12.4,12.2,12.3,12
-75.8,5.28,26145020,CO,Bellavista,Anserma,Caldas,1932,16.9,17.1,17,17.1,17.2,17.3,17.3,17.3,16.9,16.7,16.6,16.7,17,21.8,21.9,21.7,21.6,21.5,21.4,21.9,22,21.5,21.2,20.9,21,21.5,22,13.3,13.5,13.7,13.8,13.8,13.5,13.1,13.1,13.1,13.4,13.4,13.6,13.4,13.1
-75.47,5.03,26155110,SP,Apto La Nubia,Manizales,Caldas,2058,16.9,17.2,17.2,17.2,17.2,17.1,17.2,17.2,16.9,16.6,16.6,16.8,17,21.5,22,21.8,21.4,21.3,21.3,21.5,21.7,21.2,20.6,20.6,21.1,21.3,22,11.8,12.1,12.5,12.8,12.8,12.8,12.5,12.6,12.5,12.4,12.3,12.2,12.4,11.8
-75.38,5.37,26185040,CO,San Felix,Salami,Caldas,2696,11,11.3,11.5,11.6,11.7,11.6,11.6,11.5,11.4,11.2,11,11,11.4,16.6,16.8,16.6,16.6,16.8,17,17.1,17.1,16.8,16,15.7,16.2,16.6,17.1,5.3,5.9,6.1,6.7,6.8,6.3,6,5.9,6.2,6.4,6.2,5.6,6.1,5.3
-74.99,5.42,23055040,CO,Sama,Sama,Caldas,1475,19.2,19.3,19.4,19.5,19.5,19.9,20.2,20.4,19.9,19.3,19.1,19.1,19.6,21.7,22,21.9,22.1,22.1,22.7,23.3,23.6,22.8,21.9,21.6,21.5,22.3,23.6,16.4,16.3,16.5,16.3,16,16.7,16.6,16.6,16.1,16.1,16.2,16.2,16.3,16
-75.65,5.47,26175070,CO,Rafael Escobar,Supia,Caldas,1320,22.2,22.6,22.7,22.2,21.9,22.1,22.2,22.4,21.8,21.3,21.3,21.8,22.1,28.2,28.6,28.7,27.7,27.2,27.4,27.8,28.2,27.6,26.4,26.9,27.6,27.7,28.7,17.3,17.6,17.7,17.8,17.7,17.6,17.1,17.3,17.1,17.1,17.3,17.2,17.4,17.1
-75.35,4.9,26155150,CP,Brisas Las,Villamaria,Caldas,4150,4.4,4.6,4.8,5,5.1,4.9,4.5,4.5,4.4,4.4,4.4,4.5,4.6,8.6,8.5,8.7,8.5,8.5,8.7,8.6,8.6,8.3,7.7,8,8.4,8.4,8.7,0.8,1,1.2,1.8,1.9,1.5,0.9,0.9,1,1.3,1.5,1,1.2,0.8
-75.88,5.05,26145050,CO,Samaria La,Viterbo,Caldas,1020,24.7,24.6,24.7,24.4,24.2,24.5,24.3,24.6,24.4,24.1,24.3,24.7,24.5,30,30.2,30.3,29.6,29.2,29.3,29.5,29.8,29.9,28.9,29.3,29.7,29.7,30.3,,,,,,,,,,,,,,
-75.81,1.3,44045030,CO,Mono La,Belen de los Andaquies,Caqueta,300,26.2,25.8,25.5,25.1,25,24.5,24.2,24.8,25.4,25.6,25.7,25.9,25.3,31.9,31.3,30.6,29.9,29.6,28.9,28.8,29.8,30.9,31,31,31.3,30.4,31.9,20.9,20.7,20.8,20.7,20.7,20.5,20.1,20.4,20.6,20.8,21,20.8,20.7,20.1
-75.16,1.64,46035010,CO,Maguare,El Doncello,Caqueta,270,26.8,26.5,25.9,25.4,25.1,24.4,24.2,24.8,25.4,25.6,25.8,26.2,25.5,32.7,32.3,31.2,30.5,29.8,28.9,28.7,29.9,30.8,31,30.8,31.8,30.7,32.7,20.8,21.2,21.5,21.6,21.5,20.8,20.3,20.4,20.7,21.1,21.4,21,21,20.3
-75.56,1.59,44035020,CO,Apto G Artunduaga,Florencia,Caqueta,244,26.9,26.6,26.2,25.7,25.5,24.8,24.6,25.2,25.7,26,26.2,26.5,25.8,32.6,32,31,30.2,29.8,28.9,28.8,30,30.9,31.2,31.3,32,30.7,32.6,21.6,21.8,21.7,21.6,21.5,21,20.6,20.7,21,21.4,21.6,21.7,21.4,20.6
-75.66,1.5,44035030,AM,Macagual,Florencia,Caqueta,280,26,25.8,25.4,25,24.8,24.2,23.8,24.4,24.9,25.2,25.4,25.7,25,32.2,31.7,30.6,30,29.6,28.7,28.6,29.7,30.8,31,30.9,31.7,30.4,32.2,21.2,21.3,21.7,21.7,21.7,21.2,20.7,20.8,21,21.5,21.7,21.6,21.3,20.7
-75.15,1.92,46035020,CO,Pto Rico,Puerto Rico,Caqueta,285,26.9,26.7,26.1,25.6,25.3,24.8,24.4,25.1,25.6,25.8,26.1,26.4,25.7,32.7,32.2,31.2,30.2,29.9,29.1,28.8,29.9,30.9,31.2,31.2,31.7,30.7,32.7,21.6,21.8,22,22,21.9,21.4,20.9,21.1,21.3,21.7,22,21.8,21.6,20.9
-75.96,1.33,44045010,CO,San Jose de Fragua,San Jose del Fragua,Caqueta,320,26,25.7,25.3,25,24.9,24.3,24,24.6,25.4,25.5,25.5,25.7,25.2,31.4,31.1,30.3,29.8,29.6,28.7,28.5,29.6,30.8,31.1,30.8,31,30.2,31.4,21.7,21.6,21.4,21.2,21.3,20.6,20.2,20.4,20.8,21.1,21.4,21.6,21.1,20.2
-74.76,2.06,46015010,CP,S.Vcte Caguan,San Vicente del Caguan,Caqueta,300,27.3,27.3,26.6,26,25.8,25.1,24.7,25.4,25.7,26.1,26.2,26.8,26,33.5,33,31.9,31.1,30.7,29.7,29.5,30.5,31.4,31.8,31.9,32.8,31.3,33.5,20.7,21.3,21.8,22,22,21.4,21.2,21.2,21.1,21.6,21.7,21.2,21.4,20.7
-74.79,1.74,46015020,CO,Sta Rosa Caguan,San Vicente del Caguan,Caqueta,240,26.8,26.7,26.1,25.6,25.3,24.6,24.4,25,25.5,25.9,26,26.4,25.7,34,34.1,31.9,31.3,30.4,30.1,29.5,30.8,31.9,32.3,32.1,32.9,31.7,34.1,20.8,21.4,22,22.3,22.1,21.7,21.2,21.4,21.6,21.9,22,21.3,21.7,20.8
-72.38,-0.62,44135010,CP,Araracuara,Solano,Caqueta,150,26.1,26.4,26.4,25.9,25.5,25.2,24.9,25.4,25.9,26.1,26,26.3,25.8,31.9,31.8,31.6,30.9,30.2,29.6,29.7,30.7,31.4,31.5,31.5,31.8,31.1,31.9,22,22.1,22.3,22.4,22.3,21.8,21.3,21.4,21.8,22.1,22.4,22.2,22,21.3
-75.24,0.74,44055010,SP,Tres Esquis,Solano,Caqueta,219,27.1,26.3,25.8,25.5,25.4,24.7,24.6,25,25.6,25.8,26.2,26.6,25.7,32.6,31.8,30.7,30.2,29.8,29.3,29.3,30.3,31.1,31.4,31.5,31.8,30.8,32.6,20.6,20.5,20.9,20.8,21.1,20.5,20.4,20.3,20.5,20.6,20.8,20.4,20.6,20.3
-75.7,1.2,44045020,CO,Valparaiso,Valparaiso,Caqueta,270,26.9,26.6,26.3,25.8,25.7,25.3,25.2,25.6,26.1,26.4,26.5,26.6,26.1,32.2,31.8,31.3,30.5,30.4,29.6,29.6,30.4,31.2,31.5,31.6,31.9,31,32.2,22,22,22.1,22.1,22,21.6,21.2,21.3,21.7,22,22.3,22.1,21.9,21.2
-72.55,5.18,35195030,CO,Aguazul,Aguazul,Casare,380,27.9,28.1,28,26.8,26.1,25.6,25.4,25.7,26.2,26.4,26.8,27.2,26.7,33.1,33.6,33.4,32.2,30.7,29.8,29.8,30.6,31.2,31.3,31.3,31.9,31.5,33.6,21.1,22.2,22.4,22.3,21.8,21,21.4,21.4,21.4,21.6,21.4,21.1,21.6,21
-71.43,4.91,35225020,CO,Modulos,Orocue,Casare,130,27.4,28.2,28.2,26.9,26.2,25.6,25.5,25.9,26.5,26.7,26.9,27,26.7,33.1,34.1,34.1,32.4,31.3,30.3,30.2,30.8,31.7,31.9,32,32,32,34.1,20.6,20.9,21.5,21.8,22,22,21.7,21.8,21.9,22.2,22.5,21.7,21.7,20.6
-72.75,5.02,35195020,CO,Taurame,Taurame,Casare,460,26.2,26.5,26.3,25.5,25.2,24.8,24.4,24.9,25.3,25.5,25.6,25.9,25.5,31.4,32,31.7,30.2,29.6,28.9,28.7,29.2,29.8,30.2,30.1,30.4,30.1,32,20.7,21.3,21.8,21.4,21,20.8,20.5,20.6,20.6,20.8,20.9,20.8,20.9,20.5
-72.92,4.66,35095110,CP,Huerta La Grande,Villanueva,Casare,255,27.2,27.6,27.1,25.8,25,24.5,24.2,24.8,25.3,25.8,26,26.6,25.8,33,33.2,32.9,31.2,30,29.3,29.2,30.1,30.9,31.3,31.2,31.8,31.2,33.2,21.8,22.3,22.5,22,21.4,21,20.8,21.2,21.4,21.7,21.9,21.8,21.6,20.8
-72.39,5.32,35215010,CP,Apto Yopal,Yopal,Casare,325,28.2,28.7,28.5,26.6,25.7,25.1,24.9,25.4,26,26.2,26.7,27.2,26.4,32.8,33.7,33.4,31.5,30.5,29.5,29.4,30.1,30.8,31,31.3,31.9,31.2,33.7,23.3,23.8,24,23,22.6,21.9,21.6,21.7,22.1,22.2,22.8,22.8,22.6,21.6
-77,1.83,52025010,CO,Bolivar,Bolivar,Cauca,1510,21.1,21.4,21.5,21.4,21.5,21.8,22.3,22.8,22.3,21.4,20.7,20.8,21.6,25.6,26,26,25.8,25.8,26.3,27.3,28.4,28,26.4,25,25,26.3,28.4,17.7,17.8,17.9,17.9,17.9,17.8,17.9,18.1,17.7,17.5,17.3,17.5,17.8,17.3
-76.89,1.75,52025020,CO,Milagros Los,Bolivar,Cauca,2300,15.9,16,16.1,16.4,16.6,16.8,16.6,16.8,16.9,16.2,15.7,15.8,16.3,,,,,,,,,,,,,,,12.8,12.9,13.1,13.3,13.3,13.3,12.9,13.1,13,12.8,12.7,12.8,13,12.7
-76.56,2.58,26025090,CO,Venta De Cajibio,Cajibio,Cauca,1850,18.3,18.5,18.5,18.5,18.5,18.7,18.9,19.1,18.6,18.1,18.1,18.1,18.5,24.4,24.3,24.4,24.3,24.5,24.8,25.2,25.4,25.1,24.2,23.7,23.8,24.5,25.4,13.6,13.7,13.9,14.1,14.1,13.8,13.5,13.5,13.4,13.5,13.7,13.7,13.7,13.4
-77.89,2.57,53045030,CO,Apto Guapi,Guapi,Cauca,10,25.9,26.2,26.4,26.5,26.4,25.9,25.9,26,25.8,25.8,25.6,25.6,26,29.9,30.2,30.8,30.8,30.3,29.8,29.7,29.8,29.7,29.7,29.4,29.5,30,30.8,22.1,22.5,22.6,22.8,22.7,22.2,22.1,21.4,21.7,22.1,22.7,22.6,22.2,21.4
-77.88,2.57,53045010,CP,Bonza,Guapi,Cauca,10,25.7,26,26.2,26.3,26.1,26,26,26.1,25.8,25.8,25.7,25.7,26,29.6,30,30.4,30.4,29.9,29.6,29.7,29.8,29.4,29.4,29.4,29.4,29.8,30.4,22.3,22.4,22.7,23,23.1,23,22.8,22.8,22.7,22.8,22.8,22.7,22.8,22.3
-78.17,2.96,57025010,CP,Gorgo,Guapi,Cauca,10,26,26.3,26.3,26.6,26.5,26.1,26.1,26.1,25.9,25.8,25.8,25.8,26.1,29.1,29.5,29.6,29.8,29.5,29,29,29.1,28.9,28.8,28.5,28.5,29.1,29.8,23.5,23.4,23.2,23.5,23.7,23.3,23.4,23.3,23.4,23.5,23.6,23.5,23.4,23.2
-76.75,2.19,52025050,CO,Sierra La,La Sierra,Cauca,1870,17.5,17.8,17.9,17.8,18,18.1,18.3,18.7,18.6,17.9,17.3,17.3,17.9,21.8,22,22.1,21.9,22.1,22.2,22.9,23.6,23.7,22.6,21.4,21.2,22.3,23.7,14.3,14.4,14.4,14.6,14.7,14.6,14.4,14.4,14.3,14.1,14,14.2,14.4,14
-77.19,1.91,52025060,CP,Gja Exp Univ rin,Mercaderes,Cauca,580,26,26.3,26.2,26.1,26.2,26.3,26.6,26.9,26.5,25.9,25.3,25.5,26.1,32.9,33.1,32.9,32.5,32.6,33.2,34.6,35.2,35.1,33.5,31.5,31.7,33.2,35.2,20.7,20.8,21,21.3,21.1,20.5,19.7,19.9,20.5,20.9,21,20.7,20.7,19.7
-77.16,1.76,52025030,CO,Mercaderes,Mercaderes,Cauca,1174,22.6,22.8,22.9,22.8,22.7,23,23.5,24,23.6,22.7,22.1,22.2,22.9,28,28.5,28.3,28.1,27.8,28.6,29.9,30.8,30.2,28.6,27,26.9,28.6,30.8,18.3,18.3,18.5,17.9,18.6,18.2,18.2,18.3,18.2,18.2,18.1,18.2,18.3,17.9
-76.35,3.27,26065010,CO,Ing Cauca,Miranda,Cauca,1000,23.6,23.7,23.6,23.4,23.4,23.5,23.6,23.8,23.5,23.2,22.9,23.3,23.5,30,30.3,30.3,29.6,29.4,29.6,29.9,30.3,30.1,29.4,29,29.4,29.8,30.3,18.6,18.8,18.7,19.1,19.1,18.8,18.2,18,18.2,18.5,18.8,18.7,18.6,18
-76.22,3.25,26065020,CO,Miranda,Miranda,Cauca,1128,23.5,23.6,23.6,23.5,23.4,23.5,23.6,23.9,23.6,23.2,23.1,23.3,23.5,29.3,29.5,29.5,29.1,28.6,29,29.4,29.7,29.4,28.5,28.3,28.7,29.2,29.7,18.1,18.2,18.3,18.3,18.4,18.2,17.9,18.1,18.1,18,18,18.1,18.1,17.9
-77.05,2.15,52015020,CO,Fonda La Citec,Patia,Cauca,635,26,26.2,26.2,25.9,25.9,25.9,26.7,27.6,27.4,26.3,25.6,25.5,26.3,32.2,32.8,32.8,32.5,32.4,32.9,34.2,35.4,35.2,33,31.4,31.4,33,35.4,20.7,20.6,20.7,21.2,20.9,20.1,18,18.9,19,20.3,20.7,20.9,20.1,18
-76.53,2.67,26025100,CO,Tunia,Piendamo,Cauca,1800,19,19,19,19.1,18.9,19.2,19.4,19.7,19.3,18.9,18.6,18.7,19.1,23.6,23.9,23.8,23.6,23.6,23.7,24.4,25,24.4,23.6,23,23.1,23.8,25,14.2,14.5,14.7,14.9,14.8,14.5,14,14,14,14.2,14.4,14.4,14.4,14
-76.61,2.45,26035030,SP,Apto G L Valencia,Popayan,Cauca,1749,,,,,,,,,,,,,,24.6,24.8,24.8,24.7,24.8,25.1,25.3,25.7,25.5,24.7,24.2,24.2,24.9,25.7,13.4,13.6,13.9,14.2,14.1,13.1,12.4,12.3,12.5,13.6,14.1,13.9,13.4,12.3
-76.42,3.26,26045010,CO,Ing Bengala,Puerto Tejada,Cauca,1000,24.1,24.2,24.1,23.9,24,24,24.2,24.3,24.1,23.9,23.8,23.9,24,30,30.3,30.2,29.6,29.6,29.7,30.2,30.6,30.3,29.5,29.2,29.5,29.9,30.6,18,18,18.1,18.1,18.3,17.9,17.5,17.5,17.7,17.9,18,18.1,17.9,17.5
-75.45,2.17,26015020,CO,Paletara,Purace,Cauca,2900,11.4,11.5,11.4,11.6,11.7,11.2,10.5,10.6,11.3,11.5,11.7,11.5,11.3,16.1,15.7,15.4,15.4,15.5,14.9,13.6,14.6,15.2,16.1,15.8,15.5,15.3,16.1,5.8,5.8,6.2,6.3,6.6,6.6,6.1,6.2,6.2,6.3,6.1,5.7,6.2,5.7
-76.16,2.24,21055030,CO,Sta Leticia,Purace,Cauca,2085,16.1,16.2,16,16.1,16,15.7,15.3,15.4,15.7,15.9,15.9,16,15.9,20.2,20.1,19.8,19.9,19.5,19.2,18.7,18.8,19.5,19.7,19.7,19.9,19.6,20.2,11.6,11.8,11.9,12.1,12,11.7,11.3,11.3,11.3,11.5,11.7,11.7,11.7,11.3
-76.67,1.9,44015030,CP,Valencia,San Sebastian,Cauca,2900,10.8,11,11.1,11.1,11.2,10.6,10,10,10.3,10.7,10.9,11,10.7,17,16.9,16.6,16.6,16.6,15.5,14.8,14.6,15.5,16.2,16.4,16.5,16.1,17,5.1,5.6,5.9,6.4,6.8,6.4,6.2,5.8,5.2,5.4,5.9,5.6,5.8,5.1
-76.45,3.05,26025030,CO,Japio,Santander de Quilichao,Cauca,1015,23.5,23.7,23.6,23.5,23.4,23.5,23.6,24.1,23.8,23.3,23.1,23.4,23.6,29,29.2,29.3,28.9,28.6,28.8,29.4,30.2,29.5,28.7,28.2,28.5,29,30.2,18.5,18.5,18.7,18.8,18.7,18.3,17.5,17.5,18,18.4,18.6,18.7,18.3,17.5
-76.61,2.25,52015010,CO,Paispamba,Sotara,Cauca,2450,13.7,13.8,14,14.1,14.3,14.1,14.2,14.3,14.3,13.8,13.4,13.5,14,,,,,,,,,,,,,,,10.2,10.3,10,10.4,10.3,10.3,10.1,10.1,10,9.9,10.3,10.3,10.1,9.9
-76.29,2.51,26025070,CO,Gabriel Lopez,Totoro,Cauca,3000,10.5,10.5,10.6,10.7,10.6,10.2,9.8,10,10.4,10.6,10.6,10.5,10.4,15.8,15.7,15.9,15.5,15.2,14.4,13.8,14.1,14.9,15.4,15.4,15.7,15.2,15.9,5.3,5.7,6,6.6,6.8,6.9,6.5,6.4,6.2,6.1,6.1,5.8,6.2,5.3
-73.6,8.23,23215030,CO,Aguas Claras,Aguachica,Cesar,208,29.2,29.8,29.7,28.8,28.3,28.1,28.3,28.3,27.9,27.5,27.8,28.2,28.5,34.3,35,34.7,33.3,32.3,32.2,32.5,32.6,31.9,31.4,31.6,32.7,32.9,35,23.2,24,24.4,24.3,23.9,23.7,23.5,23.4,23.2,23.3,23.4,23.1,23.6,23.1
-73.27,9.85,28025090,CO,Centerio Hda,Agustin Codazzi,Cesar,100,27.9,28.5,28.9,28.4,27.9,28,28.2,28,27.4,27.1,27,27.2,27.9,35.4,36,35.8,34.8,33.6,33.9,34.5,34.3,33.2,32.7,32.8,33.9,34.2,36,19.8,21,22.3,23.1,23.3,23,22.7,22.8,22.7,22.5,22.2,21,22.3,19.8
-73.25,10,28025070,AM,Motilonia Codazzi,Agustin Codazzi,Cesar,180,29.5,30.2,30.3,29.6,28.6,28.6,29.1,28.8,28,27.5,27.7,28.2,28.8,35.7,36.3,36,35.1,33.5,33.8,34.6,34.3,33.1,32.5,32.8,34.1,34.3,36.3,22.3,23.4,24,24.6,24.4,24.2,23.9,24,23.8,23.7,23.4,22.5,23.7,22.3
-73.24,9.69,28025080,CP,Socomba,Becerril,Cesar,170,28.1,28.9,28.9,28.3,27.7,27.8,28.1,27.9,27.2,26.7,26.9,27.4,27.8,34.5,34.9,34.5,34,33.1,33.2,33.7,33.3,32.9,32.2,32.4,33.5,33.5,34.9,20.7,21.2,21.9,22.5,22.4,22.3,22,22.1,22,22,21.8,21.2,21.8,20.7
-73.59,9.36,25025250,CO,Chirigua,Chirigua,Cesar,40,28.6,29.1,29.1,28.7,28.1,28.2,28.5,28.5,27.9,27.6,27.7,28.1,28.4,35,36,35.5,34,32.9,32.8,33.6,33.8,32.5,31.9,32.2,33.4,33.6,36,21.2,21.5,21.8,22.1,22,22.3,22.4,22.2,21.9,21.9,21.9,21.7,21.9,21.2
-73.63,8.96,25025330,CP,Col Agro Pailitas,Pailitas,Cesar,50,27.7,28.8,28.9,28.2,27.7,27.8,28.2,27.9,27.3,26.9,26.9,27.1,27.9,33.5,34.5,34.3,33.4,32.6,32.6,33.4,32.9,32.5,31.9,31.9,32.5,33,34.5,21.1,21.7,22.5,23,23.1,22.9,23,22.7,22.7,22.4,22.4,21.9,22.5,21.1
-73.13,10.27,28025020,CO,Rincon El,San Diego,Cesar,350,26.1,26.9,27.4,27.2,26.6,26.5,26.8,26.7,26.1,25.7,25.6,25.6,26.4,33.4,34.3,34.4,33.4,32,32.1,32.7,32.5,31.7,30.9,31.1,32.1,32.6,34.4,18.4,19.2,20.2,20.9,21.1,20.8,20.5,20.6,20.4,20.5,20,19,20.1,18.4
-73.25,10.44,28035030,SP,Apto Alfonso Lopez,Valledupar,Cesar,138,29.1,29.9,30.2,29.8,28.9,29.1,29.8,29.4,28.2,27.8,27.9,28.4,29,34.8,35.6,36,35.5,34,34,35.2,35,33.8,32.8,32.8,33.7,34.5,36,22.8,23.4,24.1,24.5,24.3,24.2,24.3,24.1,23.5,23.3,23.3,23.1,23.7,22.8
-73.32,10.36,28035020,CO,Callao El,Valledupar,Cesar,110,28.5,29.4,29.7,29.1,28.2,28.2,28.7,28.5,27.5,27.1,27.4,27.6,28.3,35.2,36.1,36.5,35.6,34.1,33.9,34.7,34.8,33.5,33.1,33.1,33.8,34.5,36.5,21.9,22.5,23.1,23.5,23.4,23.2,23,23,22.4,22.5,22.4,21.9,22.8,21.9
-73.65,9.9,28035040,CO,Guaymaral,Valledupar,Cesar,50,30.4,30.5,30.3,30.2,29.7,29.8,29.9,29.8,29.3,28.8,29,29.7,29.8,36.4,36.5,36.6,36.5,35.5,35.4,35.7,35.5,34.6,33.8,34.1,35.1,35.3,36.6,23.8,24.3,24.3,24.2,24.2,24.2,24.2,24,23.7,23.6,23.6,23.5,23.9,23.5
-73.55,10.19,28035010,CO,Villa Rosa,Valledupar,Cesar,70,29.4,30.2,30.3,29.6,29,28.8,29.2,29,28,27.7,27.8,28.3,28.9,35.7,36.4,35.9,35.6,34.1,34.6,35.1,35,33.8,33.1,33.4,34.8,34.6,36.4,22.1,23.4,24,24.2,24,23.8,23.7,23.5,23.1,23.1,22.9,22,23.3,22
-77.4,6.22,56015010,CO,Pamerica,Bahia Solano,Choco,4,26,26.3,26.2,26.1,25.9,25.7,25.8,25.8,25.6,25.6,25.5,25.7,25.8,29.4,29.9,29.9,29.9,29.7,29.3,29.5,29.5,29.1,28.8,28.7,29,29.4,29.9,22.5,22.4,22.4,22.7,22.7,22.4,22.3,22.4,22.2,22,22,21.9,22.3,21.9
-76.98,6.53,11085010,AM,Loma La,Bojaya,Choco,20,26.7,26.8,27,27.1,26.6,26.8,26.5,26.7,26.1,26,26.2,26.5,26.6,,,,,,,,,,,,,,,,,,,,,,,,,,,,
-76.65,5.1,54025020,CP,Apto Condoto,Condoto,Choco,66,26,26.1,26.3,26.3,26.5,26.3,26.3,26.1,26.1,25.9,25.7,25.4,26.1,29.9,30.3,30.6,30.7,30.8,30.8,30.7,30.7,30.5,30.2,29.9,29.7,30.4,30.8,22.6,22.2,22.7,22.5,22.6,22.4,22.4,22.5,22.4,22.4,22.5,22.5,22.5,22.2
-76.58,5.51,11035010,CO,Lloro,Lloro,Choco,90,26.1,26.3,26.4,26.5,26.6,26.5,26.5,26.5,26.4,26.2,26.1,26,26.3,30.2,30.5,30.8,30.8,31.2,31.1,31.3,31.3,30.9,30.6,30.4,30.2,30.8,31.3,23.4,23.3,23.1,23.6,23.3,23.6,23.4,23.2,23.3,23.4,23.1,23.4,23.3,23.1
-76.93,4.69,54085010,CO,Noama,Medio San Juan,Choco,40,26,26.2,26.3,26.4,26.3,26.1,26.1,26,25.9,25.8,25.8,25.8,26,29.5,29.9,30.1,30.1,30.2,29.9,29.9,29.9,29.8,29.3,29.3,29.3,29.8,30.2,22.4,22.5,22.6,22.7,22.7,22.5,22.4,22.4,22.3,22.3,22.4,22.5,22.5,22.3
-76.64,5.69,11045010,SP,Apto El Carano,Quibdo,Choco,53,26.4,26.7,26.9,26.9,27,26.8,26.8,26.8,26.5,26.3,26.2,26.2,26.6,30,30.3,30.6,30.8,31.1,30.9,31.1,31.2,30.9,30.5,30.3,29.8,30.6,31.2,23.4,23.4,23.5,23.6,23.5,23.3,23.1,23.1,23.1,23,23.1,23.3,23.3,23
-76.75,5.63,11035020,CO,San Isidro,Rio Quito,Choco,45,26,26.3,26.6,26.6,26.6,26.5,26.5,26.4,26.3,26,25.9,25.9,26.3,30,30.5,30.7,31.1,31.3,31.1,31.1,31.2,31,30.6,30.2,30,30.8,31.3,23,23.1,23,23.3,23.3,23.1,22.8,22.8,22.8,22.8,23,22.8,22.9,22.8
-77.12,7.85,11135010,CO,Sautata,Riosucio,Choco,2,26.8,27,27.2,27.4,27.4,27.3,27.2,27.2,26.9,26.8,26.7,26.6,27.1,31.6,32,32.3,32.2,31.8,31.7,31.9,31.9,31.7,31.5,31.4,31.4,31.8,32.3,,,,,,,,,,,,,,
-76.23,4.9,54025010,CO,San Jose Palmar,San Jose del Palmar,Choco,1115,20.6,20.8,21,21.2,21.3,21.2,21.1,21.1,20.8,20.6,20.6,20.6,20.9,23.6,23.9,24.2,24.6,24.7,24.5,24.5,24.6,24.3,24.1,23.7,23.5,24.2,24.7,18,18.1,18.2,18.4,18.4,18.3,18.1,18,17.9,17.7,17.8,17.9,18.1,17.7
-75.16,8.3,25025150,CO,Ayapel,Ayapel,Cordoba,22,27.8,28.4,28.6,28.4,27.9,27.9,27.8,27.7,27.5,27.3,27.4,27.7,27.8,33.1,33.9,34.3,33.9,32.9,32.6,32.6,32.4,32,31.9,32,32.4,32.8,34.3,22.7,22.9,23.2,23.6,23.6,23.3,23.1,23.1,23,23.1,23.5,23.3,23.2,22.7
-75.8,8.84,13075030,AM,Turipa,Cerete,Cordoba,20,27.6,27.9,28.3,28.4,28.1,27.9,28,27.8,27.4,27.3,27.3,27.4,27.8,33.4,33.9,34.1,33.6,32.7,32.3,32.5,32.6,32.1,31.9,32.1,32.5,32.8,34.1,22.3,22.6,23.2,23.9,24,23.7,23.5,23.5,23.3,23.4,23.2,22.9,23.3,22.3
-75.62,9.15,13075010,CO,Chima,Chima,Cordoba,20,27.5,27.6,27.8,27.8,27.6,27.5,27.6,27.5,27.3,27.3,27.3,27.4,27.5,32.7,33.2,33.5,33.4,32.6,32.3,32.5,32.3,31.9,31.8,31.9,32.3,32.6,33.5,22.3,22.5,22.7,23,22.9,22.8,22.7,22.6,22.5,22.6,22.8,22.6,22.6,22.3
-75.58,8.91,13075020,CO,Salado El,Ciega de Oro,Cordoba,40,28,28.3,28.4,28.4,28,27.9,27.9,27.8,27.6,27.5,27.8,27.9,28,34.5,34.9,34.9,34.4,32.9,32.8,33.1,32.9,32.6,32.6,32.9,33.6,33.5,34.9,23.1,23.4,24,24.4,24.2,23.8,23.6,23.5,23.4,23.5,23.6,23.4,23.6,23.1
-75.91,9.3,13085010,CP,Doctri La,Lorica,Cordoba,20,27.4,27.6,27.8,28.1,27.9,28,28,27.8,27.5,27.3,27.4,27.4,27.7,32,32.2,32.2,32.3,31.8,31.9,32,31.7,31.3,31.1,31.4,31.9,31.8,32.3,23.7,23.9,24.6,25,24.8,24.6,24.3,24.2,24.2,24.2,24.2,24,24.3,23.7
-75.84,9.25,13085020,CO,Lorica,Lorica,Cordoba,30,27.3,27.5,27.8,28,27.7,27.6,27.6,27.5,27.2,27,27.1,27.3,27.5,33.4,33.8,33.9,33.6,32.5,32.6,32.7,32.6,31.9,31.4,31.7,32.4,32.7,33.9,23.3,23.6,24.2,24.5,24.3,23.9,23.6,23.6,23.3,23.6,23.7,23.6,23.8,23.3
-75.4,8,25025160,CO,Cuba Hda,Montelibano,Cordoba,50,27.3,27.5,27.6,27.5,27.3,27.2,27.1,27.1,27,27,27,27.2,27.2,33.5,33.7,33.8,33.6,33.1,32.8,32.7,32.7,32.7,32.6,32.6,32.8,33,33.8,22.3,22.3,22.7,22.9,22.6,22.4,22.5,22.4,22.4,22.6,22.8,22.5,22.5,22.3
-75.83,8.83,13085040,SS,Apto Los Garzones,Monteria,Cordoba,20,28,28.2,28.5,28.7,28.3,28.3,28.3,28,27.8,27.7,27.5,27.7,28.1,33.7,34.2,34.3,34,32.9,32.8,32.9,32.9,32.4,32.4,32.4,32.9,33.2,34.3,22.4,22.7,23,23.6,23.6,23.5,23.3,23.1,23.1,23.1,23.1,22.9,23.1,22.4
-75.97,8.66,13055030,CO,Galan,Monteria,Cordoba,30,27,27.2,27.5,27.6,27.4,27.5,27.4,27.4,27.1,27,27,27,27.2,33.8,34.4,34.4,34.2,33.3,33.3,33.4,33.3,32.8,32.8,32.8,33.3,33.4,34.4,22.1,22.2,22.7,23.2,23.3,23.3,23.2,23.2,23,23.1,23,22.7,22.9,22.1
-75.89,8.41,13065020,CO,Maracayo,Monteria,Cordoba,25,27.2,27.5,27.5,27.3,27.2,27.1,27,27,26.9,26.8,27.1,27.2,27.2,33.3,33.5,33.7,33.5,32.8,33.1,32.8,32.7,32.3,32.5,32.6,33.1,33,33.7,22.4,22.5,22.5,22.5,22.6,22.5,22.3,22,22.2,22.1,22.4,22.6,22.4,22
-75.86,8.79,13075050,AM,Univ de Cordoba,Monteria,Cordoba,15,27.3,27.4,27.8,28,27.7,27.7,27.6,27.5,27.2,27.1,27.2,27.2,27.5,33.2,33.7,33.7,33.4,32.4,32.4,32.5,32.5,32,31.9,32,32.5,32.7,33.7,22.7,23,23.7,24.1,23.9,23.8,23.6,23.5,23.2,23.5,23.4,23.2,23.5,22.7
-75.63,8.18,25015010,CO,Centro Alegre,Planeta Rica,Cordoba,170,28.1,28.2,28.3,28.1,27.7,27.8,27.6,27.6,27.5,27.3,27.6,27.8,27.8,33.8,34,34.2,33.7,32.8,33,32.7,32.6,32.7,32.5,32.5,32.7,33.1,34.2,22.5,22.9,22.7,22.8,22.6,22.6,22.4,22.4,22.3,22.3,22.7,22.6,22.6,22.3
-75.58,8.4,25025190,CO,Planeta Rica,Planeta Rica,Cordoba,90,27.8,28,28.3,28.2,27.7,27.7,27.6,27.5,27.3,27.2,27.2,27.5,27.6,33.7,34.7,34.6,33.5,32.3,32,32.1,32,31.9,31.7,31.8,32.4,32.7,34.7,22.7,23,23.2,23.6,23.6,23.3,23,22.9,23,23,23,22.9,23.1,22.7
-76.23,9.07,12045020,CO,Cristo Rey,Puerto Escondido,Cordoba,15,27.7,27.9,28.1,28.2,27.9,27.8,27.8,27.6,27.3,27.3,27.4,27.6,27.7,31,30.9,31,31,30.9,31,31.1,31,30.6,30.6,30.8,31,30.9,31.1,24.3,25.1,25.4,25.5,24.9,24.2,24,24,23.8,23.8,23.8,23.9,24.4,23.8
-75.5,8.74,25025170,CO,Colomboy,Sahagun,Cordoba,125,27.4,27.6,27.8,27.6,27.2,27.3,27.2,27.2,26.8,26.7,26.9,27.1,27.2,33.1,33.9,34.1,33.1,31.8,31.6,31.8,31.8,31.2,31.1,31.1,31.7,32.2,34.1,23.1,23.3,23.7,24,23.9,23.6,23.3,23.2,23.1,23.2,23.4,23.4,23.5,23.1
-75.95,9.37,13085030,CO,San Berrdo del V,San Berrdo del Viento,Cordoba,22,27.2,27.2,27.3,27.5,27.4,27.4,27.4,27.3,27.1,27.1,27.2,27.2,27.3,30.8,30.8,31,31.1,31.1,31.2,31.2,31,30.7,30.7,30.7,31,31,31.2,22.5,22.8,22.6,22.9,22.6,22.7,22.4,22.4,22.4,22.3,22.5,22.5,22.6,22.3
-74.46,4.84,23065060,CO,Sta Teresa,Alban,Cundimarca,2200,15.4,15.6,15.6,15.6,15.7,15.4,15.3,15.6,15.7,15.6,15.4,15.3,15.5,19,19.2,19.1,18.9,18.8,18.5,18.4,19.1,19.2,18.9,18.5,18.6,18.8,19.2,12,12.3,12.7,12.9,13,12.8,12.3,12.4,12.4,12.6,12.5,12.2,12.5,12
-74.53,4.58,21205660,CO,Mercedes Las,Apoima,Cundimarca,810,25.3,25.4,25.2,24.7,24.7,24.8,25.1,25.8,25.6,24.9,24.5,24.7,25.1,30.7,30.8,30.5,29.8,29.6,29.9,30.5,31.3,31.3,29.9,29.4,29.6,30.3,31.3,18.9,19.6,19.5,19.6,19.7,19.5,19,19,18.9,18.7,18.7,18.7,19.2,18.7
-74.44,4.77,21205670,CO,Florida La,Anolaima,Cundimarca,1915,16.9,17,17,16.9,17,16.8,16.7,17.1,17,16.8,16.7,16.7,16.9,21,21.1,21,20.7,20.6,20.6,20.5,20.9,21.1,20.6,20.3,20.5,20.8,21.1,13.1,13.4,13.6,13.9,13.8,13.6,13.3,13.3,13.6,13.6,13.4,13.1,13.5,13.1
-74.44,4.81,21206180,CO,Primavera D Matima,Anolaima,Cundimarca,1850,17.5,17.6,17.5,17.6,17.6,17.4,17.2,17.5,17.7,17.5,17.2,17.4,17.5,21.3,21.4,21.3,21.1,20.9,20.6,20.5,21.3,21.6,21.1,20.7,20.9,21,21.6,13.7,14,14.2,14.5,14.5,14.2,13.8,13.8,14.1,14.1,14.1,13.8,14.1,13.7
-74.33,4.65,21206280,CO,Acapulco,Bojaca,Cundimarca,2650,13,13.2,13.2,13.4,13.4,13.1,12.7,12.9,13,13.1,13.1,12.9,13.1,16.1,16.1,16,16,16.1,16.1,15.7,15.8,16.3,16,16,15.9,16,16.3,9.5,9.3,9.8,10.1,10.2,9.9,9.3,9.4,9.7,9.7,9.9,9.5,9.7,9.3
-74.44,3.96,21195110,CO,Pes Blancas,Cabrera,Cundimarca,2050,16.5,16.5,16.6,16.6,16.5,16.5,16.4,16.4,16.5,16.4,16.5,16.6,16.5,,,,,,,,,,,,,,,10.7,10.7,11.3,11.4,11.3,11.3,11.1,11,11,11,11.3,10.8,11,10.7
-74.05,4.89,21205890,ME,Guata,Chia,Cundimarca,2550,,,,,,,,,,,,,,,,,,,,,,,,,,,,5.9,6.9,7.7,8.8,8.9,8.4,8,7.6,7.2,7.9,8.1,6.8,7.7,5.9
-73.98,4.58,35025060,CO,Bolsa La,Choachi,Cundimarca,3195,8.7,8.5,8.5,8.5,8.5,8.3,8,8.1,8.4,8.6,8.7,8.8,8.4,13,12.9,12.5,11.9,11.9,11.6,11.4,11.5,12.1,12.2,12.2,12.7,12.1,13,3.9,4.4,4.8,5.1,5.4,5.3,5,5,4.8,4.9,5,4.2,4.8,3.9
-73.7,5.12,21205740,CO,Silos,Choconta,Cundimarca,2709,12,12.5,12.8,12.8,12.6,11.9,11.4,11.6,11.9,12.4,12.6,12.2,12.2,18.2,18.4,18.4,17.6,17,15.7,15.1,15.7,16.5,17.2,17.5,17.7,17.1,18.4,6.6,7.6,8.2,9,9.1,8.9,8.5,8.5,7.9,8.2,8.4,7.3,8.2,6.6
-73.98,5.15,21205410,CP,Represa Del Neusa,Cogua,Cundimarca,3100,10.2,10.5,10.5,10.7,11,10.3,9.9,10.1,10.5,10.2,10.6,10.3,10.4,,,,,,,,,,,,,,,,,,,,,,,,,,,,
-74.16,4.74,21206210,ME,Flores Colombias,Funza,Cundimarca,2560,,,,,,,,,,,,,,20,20,19.6,19.2,19.2,18.7,18.6,18.7,18.7,18.9,19,19.5,19.2,20,5.7,6.8,7.6,8.8,8.9,8.6,8.1,7.8,7.3,7.7,8.1,6.9,7.7,5.7
-74.18,4.72,21205160,CO,Ramada La,Funza,Cundimarca,2545,14.1,14.1,14.6,14.9,14.9,14.5,14,14,14.2,14.5,14.7,14.4,14.4,21.4,20.7,21.1,21,20.6,19.7,19.3,19.6,20.1,20.6,20.8,21.5,20.5,21.5,7.8,8,8.8,10,10.4,9.6,9.3,9,8.8,9.6,9.5,8.1,9.1,7.8
-73.73,5.47,24015120,CP,Isla del Santuario,Fuquene,Cundimarca,2580,14.6,14.8,14.8,14.7,14.7,14.4,14,14.1,14.2,14.2,14.4,14.5,14.5,22.7,22.8,22.4,21.3,20.6,20,19.9,20.2,21,21.2,21.2,21.8,21.3,22.8,8.6,9.1,9.6,10.3,10.3,9.9,9.4,9.3,9.1,9.5,9.9,9.1,9.5,8.6
-74.4,4.4,21195120,CP,Ita Valsalice,Fusagasuga,Cundimarca,1460,20.6,20.7,20.4,20.3,20.2,20,20.2,20.5,20.6,20.6,20.2,20.3,20.4,25.3,25.4,25.1,24.6,24.3,24.1,24.4,25.1,24.9,24.4,24.1,24.4,24.7,25.4,15.4,15.9,16,16.1,15.9,15.6,15.5,15.7,15.7,15.6,15.5,15.5,15.7,15.4
-73.65,4.83,35065010,CO,Gacheta,Gacheta,Cundimarca,1752,19.1,19.5,19.6,19.5,19.3,18.7,18.2,18.5,18.8,19.3,19.3,19.1,19.1,25.2,25.5,24.9,24.1,23.7,22.8,22.3,22.9,23.8,24.3,24.6,24.8,24.1,25.5,11.7,12.8,13.9,14.6,14.8,14.5,14,14,13.4,13.8,13.8,12.4,13.7,11.7
-73.87,4.88,21205700,CO,Guasca,Guasca,Cundimarca,2750,13.2,13.5,13.6,13.6,13.5,13,12.6,12.8,13,13.2,13.5,13.4,13.2,19.2,19.4,19.5,18.9,18.4,17.4,17,17.2,17.8,18.5,18.8,18.9,18.4,19.5,5.9,6.6,7.3,8.3,8.5,8.4,8.2,8.1,7.5,7.6,7.8,6.6,7.6,5.9
-74.7,4.56,21235010,CO,Jerusalen,Jerusalen,Cundimarca,316,28.3,28.4,28.3,27.9,27.6,28,28.6,29.2,28.7,27.7,27.2,27.7,28.1,34.6,34.7,34.3,33.8,33.6,34.1,35.2,35.8,35.3,33.9,33.1,33.8,34.3,35.8,21.2,21.5,22,22.2,22,21.6,21.3,22,22,21.8,21.8,21.4,21.7,21.2
-74.27,4.73,21205770,CO,Base Aerea Madrid,Madrid,Cundimarca,2550,13.5,13.6,13.8,14,14.1,13.9,13.8,13.8,13.8,13.8,13.8,13.6,13.8,18.9,19.3,18.7,18.7,18.6,18.4,18.4,18.4,18.6,18.2,18.4,18.7,18.6,19.3,5.3,5.4,6.7,7.7,7.7,7,6.4,6.4,6.1,6.8,7,5.3,6.5,5.3
-74.25,4.72,21206060,ME,Casablanca,Madrid,Cundimarca,2575,,,,,,,,,,,,,,,,,,,,,,,,,,,,4.6,5.7,6.8,8,7.7,6.9,6.3,6.5,6.2,6.8,7.3,5.8,6.6,4.6
-74.21,4.69,21205420,AM,Tibaitata,Mosquera,Cundimarca,2543,12.8,13.2,13.4,13.7,13.7,13.4,13,13,13,13.1,13.2,12.9,13.2,20.1,20.1,20,19.6,19.4,18.9,18.6,18.9,19.4,19.4,19.4,19.7,19.5,20.1,4.9,5.9,7,8.2,8.3,7.5,6.9,6.7,6.3,7.1,7.3,5.9,6.8,4.9
-73.87,5.12,21205400,CP,Checua-Nemocon,Nemocon,Cundimarca,2580,13.8,14,14.4,14.4,14.2,13.6,13.6,13.6,13.9,14.1,14.6,14.1,14,20.6,20.2,20.8,19.7,18.9,17.9,17.9,18.5,19.2,19.9,20.4,20.5,19.5,20.8,7.1,8.1,8.7,10.1,10.5,9.8,10,9.5,9.1,9.5,9.8,8,9.1,7.1
-74.14,5.14,23065120,CO,Cabrera La,Pacho,Cundimarca,2000,16.5,16.5,16.7,16.8,17,17,17.1,17.2,16.9,16.6,16.5,16.5,16.8,21.1,21.2,21.5,21.4,21.7,21.7,21.9,22.4,22.2,21.3,20.8,20.8,21.5,22.4,12.2,12.6,13,13.7,13.9,13.8,13.4,13.5,13.2,13.1,13,12.5,13.2,12.2
-74.49,4.19,21195060,CO,Pandi,Pandi,Cundimarca,950,23.9,24.2,24,23.6,23.6,23.6,23.8,24.4,24.3,23.7,23.2,23.4,23.8,28.7,28.9,28.8,28.2,27.9,28.2,28.8,29.5,29.4,28.4,27.7,28,28.5,29.5,19.6,19.8,19.9,19.9,19.9,19.8,19.7,20.1,20.1,19.7,19.5,19.4,19.8,19.4
-73.3,4.38,35055010,CO,Japon El,Paratebueno,Cundimarca,280,27.3,27.8,27.3,26.1,25.5,24.8,24.4,25.1,25.7,26,26.1,26.6,26.1,32.6,33.2,32.3,30.9,30.1,29.1,29,29.9,30.7,31,30.8,31.2,30.9,33.2,21.6,22.1,22.5,22,21.8,21.5,21.1,21.3,21.6,21.7,22,21.8,21.7,21.1
-74.31,4.31,21195070,CO,Pasca,Pasca,Cundimarca,2256,15.7,15.7,15.9,15.9,15.9,15.8,15.6,15.7,15.9,15.8,15.7,15.8,15.8,19.3,19.4,19.5,19.3,19.5,19.4,19.2,19.5,19.7,19.4,19.4,19.4,19.5,19.7,10.3,10.5,11.2,11.6,11.6,11.4,11.1,11.1,10.9,11,11.1,10.6,11,10.3
-74.65,5.47,23035020,SP,Apto Palanquero,Puerto Salgar,Cundimarca,172,28.6,28.9,28.7,28.5,28.7,28.9,29.4,29.7,28.8,28,28,28.3,28.7,33.1,33.6,33.4,33,33.2,33.7,34.9,35.2,34.2,32.5,32.2,32.5,33.4,35.2,22.6,22.2,22.4,22.6,22.6,22.5,22.5,22.6,22.5,22.1,22.3,22.5,22.4,22.1
-74.07,5.3,23125070,CO,San Cayetano,San Cayetano,Cundimarca,2150,15.8,15.9,16,16.2,16.3,16.4,16.2,16.3,16.3,16.1,16.1,16,16.1,20.4,20.6,20.4,20.3,20.3,20.7,20.8,21.2,21.1,20.5,20.5,20.6,20.6,21.2,11.3,11.6,11.7,12.2,12.4,12.2,11.8,11.6,11.7,11.8,11.7,11.1,11.7,11.1
-74.31,4.9,23065100,CO,Sabaneta,San Francisco,Cundimarca,2475,13.2,13.5,13.5,14,14.2,14.1,13.7,13.7,13.8,13.6,13.5,13.3,13.7,17.7,17.7,17.5,17.9,18.2,18.1,17.8,17.9,18.1,17.8,17.4,17.2,17.8,18.2,9.2,9.6,9.9,10.3,10.4,10.1,9.8,9.8,9.7,9.8,9.8,9.4,9.8,9.2
-73.85,5.03,21205850,ME,Colombiano El,Sesquile,Cundimarca,2567,,,,,,,,,,,,,,,,,,,,,,,,,,,,5.2,6.3,7.2,8.6,8.9,8.4,8.1,7.7,7.1,7.6,7.7,6.1,7.4,5.2
-74.19,4.51,21205720,CO,San Jorge Gja,Soacha,Cundimarca,2900,11.7,11.8,11.9,12,11.9,11.7,11.4,11.5,11.7,11.7,11.8,11.8,11.7,16.6,17,16.7,16.1,16.4,15.8,15.3,15.6,16.1,16.1,16.1,16.4,16.1,17,6.3,6.7,7,7.6,7.5,7.2,7.1,7.2,6.8,7,7,6.7,7,6.3
-73.96,4.82,21205920,ME,Suasuque,Sopo,Cundimarca,2650,,,,,,,,,,,,,,,,,,,,,,,,,,,,4.6,5.5,6.7,8,8.3,8,7.5,7.2,6.6,7.2,7.1,5.6,6.9,4.6
-74.22,4.85,21205570,CP,Primavera La,Subachoque,Cundimarca,2590,11.2,11.8,11.4,12.1,12.2,12,11.2,11.7,11.6,11.4,11.2,10.7,11.6,18.9,18.5,18.4,18.9,18.6,17.7,17.1,17.9,18.4,18.4,18.1,18.6,18.3,18.9,3.8,5.6,5.2,6.8,7.3,6.4,5.8,5.8,5.4,5.9,6,4,5.6,3.8
-73.8,5.09,21206010,ME,Loretoki Hda,Suesca,Cundimarca,2550,,,,,,,,,,,,,,,,,,,,,,,,,,,,6.1,7.1,8,9.2,9.5,9.1,8.6,8.2,7.7,8.1,8.4,6.7,8.1,6.1
-73.85,5.25,24015210,CO,Sutatausa,Sutatausa,Cundimarca,2700,13.5,13.7,13.8,14,13.8,13.3,13.3,13.4,13.6,13.9,13.7,13.6,13.6,19.6,19.2,19.2,18.9,18.1,17.5,17.4,17.9,18.5,19.2,19.2,19.3,18.6,19.6,8.6,9.4,9.5,10.5,10.6,10.1,10.3,10,9.9,10.5,10.2,9.3,9.8,8.6
-74.11,4.91,21206020,ME,Santilla,Tabio,Cundimarca,2575,,,,,,,,,,,,,,,,,,,,,,,,,,,,5.5,6.4,7.3,8.1,8.4,7.8,7.3,6.9,6.7,7.3,7.2,5.9,7,5.5
-73.93,4.77,21205650,CP,Tabio,Tabio,Cundimarca,2620,13.4,13.6,13.9,14.2,13.8,13.5,13.4,13.5,13.6,13.4,13.5,13.5,13.6,19.9,19.5,20,19.6,18.8,18.4,18.2,18.6,19,19.5,19.7,20.1,19.3,20.1,7.4,8,8.4,9.6,9.8,9.4,9.5,9.1,8.9,9.2,9,8.2,8.9,7.4
-74.2,4.79,21205980,CO,Providencia Gja,Tenjo,Cundimarca,2560,13.3,13.7,13.9,14.2,14.2,13.9,13.6,13.6,13.6,13.7,13.8,13.5,13.7,20.1,20.3,20,19.7,19.3,18.9,18.6,18.7,19.2,19.3,19.3,19.7,19.4,20.3,4.6,5.7,6.7,8.1,8.2,7.6,6.9,6.7,6.2,7,7.1,5.7,6.7,4.6
-74.03,4.48,35025050,CO,Llano Largo,Ubaque,Cundimarca,2980,11.7,11.6,11.6,11.5,11.4,10.8,10.2,10.3,11.1,11.6,11.8,11.8,11.3,14.6,14.8,14.6,14.1,13.7,12.7,12.1,12.4,13.4,14.1,14.3,14.4,13.8,14.8,5.7,5.8,6.3,6.9,6.9,6.5,6.1,6.1,6,6.3,6.6,6.3,6.3,5.7
-74.35,5.48,23065110,CO,Yacopi,Yacopi,Cundimarca,1347,20.8,21.1,21.1,21.1,21.4,21.6,21.6,21.8,21.4,20.9,20.8,20.8,21.2,24.5,24.8,24.7,25,25.2,25.4,25.7,26.2,25.7,25,24.5,24.5,25.1,26.2,17.1,17.2,17.3,17.5,17.5,17.6,17.4,17.6,17.3,17.1,17.3,17.4,17.4,17.1
-74,4.99,21205910,ME,Cosecha La,Zipaquira,Cundimarca,2600,,,,,,,,,,,,,,,,,,,,,,,,,,,,4.9,5.7,6.6,7.7,7.9,7.6,7,6.9,6.6,6.9,7,6,6.8,4.9
-67.93,3.87,31095010,AM,Pto Inirida,Inirida,Guainia,100,27,27.4,27.4,26.7,26.2,25.8,25.6,26,26.5,26.7,26.8,26.9,26.5,32.7,33.2,33,31.7,30.4,29.9,29.9,30.6,31.7,32.1,32,32.1,31.6,33.2,22.3,22.7,22.8,22.9,22.9,22.6,22.3,22.5,22.3,22.6,22.8,22.6,22.6,22.3
-72.65,2.55,32105070,CO,San Jose Guaviare,San Jose del Guaviare,Guaviare,165,26.3,26.7,26.4,25.9,25.4,24.7,24.6,25.1,25.5,25.7,25.8,26.1,25.7,33.4,33.5,32.9,31.5,30.7,29.9,29.7,30.6,31.5,31.6,31.5,32.2,31.6,33.5,21.2,21.4,21.9,22.4,22.2,21.9,21.5,21.6,21.9,22.2,22.2,21.7,21.8,21.2
-72.64,2.37,31015010,CO,Trueno El,San Jose del Guaviare,Guaviare,150,26.2,26.4,26,25.5,25,24.4,24.1,24.5,25,25.3,25.3,25.7,25.3,32.9,33.5,32.7,31.4,30.6,29.8,29.5,30.6,31.5,31.6,31.3,31.6,31.4,33.5,20.8,21,21.7,21.8,21.7,21.1,20.8,20.9,21.1,21.4,21.5,21.2,21.2,20.8
-75.71,2.28,21045010,CO,Betulia La,Agrado,Huila,780,24.5,24.5,24.2,24.1,24.1,23.8,23.7,24.3,24.8,24.8,24.2,24.2,24.3,30.9,31.2,30.6,30.5,30.5,30.3,30.3,31.2,32.2,31.5,30.2,30.2,30.8,32.2,19,19.2,19.4,19.4,19.3,18.7,18.1,18.1,18.3,19,19.6,19.4,19,18.1
-75.32,2.52,21105030,CO,Algeciras,Algeciras,Huila,1155,23.2,23.5,23.4,23.1,23.2,23.1,23,23.3,23.4,23.3,22.9,23,23.2,29.6,29.9,29.3,29,29.4,29.7,29.8,30.6,30.6,29.9,28.4,28.6,29.6,30.6,17.7,17.9,18.1,18.1,18.3,17.7,17.1,17.1,17,17.7,18.2,17.9,17.7,17
-75.8,2.07,21025020,CO,Altamira,Altamira,Huila,1352,23.4,23.4,23.2,23.2,23,22.5,21.9,22.4,22.9,22.9,23,23.1,22.9,27.7,28.1,27.8,27.5,27.4,26.7,26,26.5,27.7,27.7,27.1,27.2,27.3,28.1,18.1,18.2,18.1,18.2,18.3,17.9,17.4,17.4,17.6,17.8,18.2,18.2,18,17.4
-75.74,2.08,21025030,CO,Altamira El Grifo,Altamira,Huila,1368,21.6,21.7,21.2,21,20.6,20,19.8,20.1,20.8,21.1,21,21,20.8,26.7,26.7,26,25.5,25.1,24.3,24.2,24.6,25.8,26.2,25.7,25.8,25.6,26.7,17.6,17.7,17.6,17.4,17.1,16.7,16.5,16.6,17.1,17.5,17.4,17.5,17.2,16.5
-74.92,3.09,21115140,CO,Laureles Los,Baraya,Huila,2100,16,16,16,16,15.9,15.6,15.3,15.4,15.7,15.8,15.9,15.9,15.8,,,,,,,,,,,,,,,13.2,13.2,13.4,13.5,13.4,13.1,12.7,12.9,13,13.1,13.3,13.3,13.2,12.7
-75.08,3.13,21115160,AM,Manila La Hda,Baraya,Huila,600,27.2,27.4,27.1,26.6,26.6,27,27.3,28,28,27,26.1,26.3,27,32.9,33,32.4,31.8,31.8,32.3,32.9,33.8,33.9,32.6,31.2,31.5,32.5,33.9,21.7,21.9,21.8,21.7,21.6,21.5,21.7,22.1,22.2,21.8,21.5,21.5,21.7,21.5
-74.94,3.23,21145060,CO,Sto Domingo,Baraya,Huila,1275,23.3,23.3,23,23,23,23,22.8,23.3,23.5,23.1,22.6,22.7,23,28.4,28.1,28,27.7,27.6,27.7,27.5,28,28.5,28.2,27.2,27.4,27.9,28.5,18.7,19,18.7,18.6,18.7,18.5,18.4,18.5,18.8,18.7,18.4,18.4,18.6,18.4
-75.42,2.71,21105060,CP,Hidrobetania,Campoalegre,Huila,500,27.4,27.6,26.9,26.8,27.1,27.2,27.3,27.9,28.1,27.2,26.3,26.4,27.2,32.3,32.6,31.9,31.9,31.7,31.6,30,32.6,33.2,30.5,29.3,29.4,31.5,33.2,21.7,21.5,21.5,21.4,21.7,22,22.1,22.6,22.5,21.5,21.1,21.3,21.7,21.1
-75.3,2.7,21105040,CO,Potosi Hda,Campoalegre,Huila,680,25.7,26,25.5,25.2,25.4,25.2,25.5,26.1,26.5,25.9,25.1,25.2,25.6,,,,,,,,,,,,,,,21.3,21.3,21.2,21.2,21.4,21.1,20.8,21.2,21.5,21.5,21.3,21.3,21.2,20.8
-75.42,2.62,21105050,CP,Rosales Los,Campoalegre,Huila,553,26.3,26.5,26.2,25.9,26.1,26.3,26.7,27.5,27.9,26.8,25.8,25.7,26.5,31.8,31.9,31.5,31.3,31.6,32,32.5,33.5,34,32.5,30.8,30.8,32,34,21.2,21.4,21.3,21.2,21.3,21.2,21.4,21.9,21.9,21.6,21.3,21.1,21.4,21.1
-74.7,3.31,21145070,CO,Legiosa La,Colombia,Huila,1476,19.5,19.6,19.5,19.3,18.9,18,17.6,18.2,19,19.3,19.3,19.3,18.9,23.6,24.1,23.4,22.9,22.8,21.2,20.9,21.7,23.1,23.8,23.5,23.6,22.8,24.1,16.3,16.7,16.8,16.7,16.4,15.9,15.3,15.6,16,16.3,16.4,16.3,16.2,15.3
-74.7,3.59,21145080,CO,Sta A,Colombia,Huila,1410,20.1,20.3,20.1,19.9,19.8,19.3,19.2,19.7,20,20,19.8,19.9,19.8,26,26,25.4,24.9,24.4,24.3,24.4,25.3,25.9,25.6,24.7,25.1,25.2,26,15.7,16,16.4,16.5,16.3,15.5,15.1,15.2,15.7,15.9,16.3,15.9,15.9,15.1
-75.53,2.25,21065040,CO,Zuluaga,Garzon,Huila,1270,20.6,20.7,20.6,20.6,20.5,20,19.7,19.9,20.2,20.4,20.4,20.4,20.3,26.6,26.9,26.4,26,25.9,25.4,25.2,25.5,26.4,26.5,26,26.1,26,26.9,15.8,16,16.3,16.4,16.5,15.9,15.4,15.3,15.3,15.9,16.3,16.1,15.9,15.3
-75.55,2.37,21065030,CO,Jorge Villamil,Gigante,Huila,1500,20.1,20.3,20.2,20.2,20.1,19.6,19.1,19.6,20.1,19.9,19.9,20,19.9,24.8,25,24.8,24.8,24.8,24.2,23.8,24.7,25.5,24.8,24.4,24.7,24.7,25.5,16.2,16.5,16.6,16.7,16.5,15.9,15.4,15.6,15.9,16.1,16.4,16.2,16.2,15.4
-75.68,1.91,21035020,CO,Resi,Guadalupe,Huila,2102,16.2,16.2,16.2,16.2,16.1,15.6,14.9,15.2,15.8,16.1,16.2,16.4,15.9,21.1,21,20.9,20.7,20.3,19.8,19.2,19.5,20.4,20.6,20.6,20.7,20.4,21.1,13.3,13.4,13.5,13.5,13.5,12.9,12.3,12.5,12.9,13.2,13.4,13.4,13.2,12.3
-75.63,2.65,21085020,CO,Iquira,Iquira,Huila,1095,23.1,23.2,23.1,23.1,23.1,23.2,23.1,23.6,24,23.5,22.8,23,23.2,27.4,27.4,27.6,27.4,27.3,27.5,28,28.2,28.8,28.1,27.1,27.1,27.6,28.8,19.3,19.3,19.3,19.3,19.2,19.1,19,19,19.2,19.1,19.1,19.1,19.2,19
-75.67,2.66,21085040,CO,Terpeya Colombia,Iquira,Huila,1650,18.7,18.9,18.9,18.9,19,18.8,18.6,19,19.4,19.1,18.5,18.4,18.9,22.9,23.1,23,23.1,23.2,23.2,23.2,24,24.6,23.5,22,22.1,23.2,24.6,15.5,15.7,15.9,16.1,16.1,15.6,15.3,15.4,15.4,15.5,15.7,15.7,15.6,15.3
-75.89,2.38,21055020,CP,Esc Agr La Plata,La Plata,Huila,1070,22.1,22.6,22.4,22.3,22.3,21.8,21.7,22.2,22.8,22.5,22.2,22.1,22.2,28.2,29,28.6,28.5,28.4,28.2,27.9,28.7,29.6,29.1,28,28.1,28.5,29.6,17.6,17.8,18,18.2,18,17.4,16.8,16.6,16.8,17.6,18.1,17.8,17.6,16.6
-75.29,2.95,21115020,SS,Apto Benito Salas,Neiva,Huila,439,27.9,28.1,27.7,27.3,27.5,27.8,28.1,28.9,29.1,27.8,26.9,27.1,27.8,32.8,33.1,32.6,32.3,32.5,33.2,33.7,34.6,34.7,32.9,31.5,31.8,33,34.7,22.4,22.6,22.6,22.5,22.5,22.4,22.5,23.1,23,22.5,22.3,22.3,22.5,22.3
-75.53,3.1,21135050,CO,Julia La,Neiva,Huila,1691,18.6,18.7,18.6,18.8,18.9,19,18.7,19,19.1,18.7,18.4,18.5,18.7,22.6,22.9,22.7,22.7,23,23.2,23.1,23.9,24,23.1,22.2,22.3,23,24,15.2,15.2,15.4,15.4,15.3,15.3,15.1,15.3,15.3,15.2,15.1,15,15.2,15
-75.07,2.94,21115100,CO,Palacio-Vegalarga,Neiva,Huila,1100,22.5,22.6,22.3,22.2,22.3,22.3,22.3,22.8,23,22.5,21.9,22,22.4,27.2,27.5,27.2,27,27.1,27.4,27.7,28.6,28.8,27.7,26.3,26.4,27.4,28.8,18.6,18.7,18.7,18.5,18.7,18.5,18.2,18.5,18.7,18.5,18.5,18.5,18.5,18.2
-75.33,2.83,21095010,CO,Juncal El,Palermo,Huila,460,26.9,26.9,26.7,26.6,26.6,26.8,26.9,27.6,27.7,26.9,26.4,26.4,26.9,31.8,32,31.7,31.4,31.5,32.2,32.4,33.3,33.6,32.4,31,31.3,32.1,33.6,21.4,21.9,21.9,21.8,21.8,21.7,21.5,21.8,21.8,21.6,21.7,21.5,21.7,21.4
-76.12,1.82,21015020,CO,Sevilla,Pitalito,Huila,1320,21,21.1,20.8,20.7,20.5,19.9,19.4,19.5,20.1,20.5,20.6,20.8,20.4,27.1,27.1,26.7,26.6,26.2,25.5,24.7,25.3,26.2,26.6,26.5,26.7,26.3,27.1,15.4,15.6,15.8,16,15.9,15.5,14.9,14.8,14.8,15.4,15.8,15.7,15.5,14.8
-76.29,1.89,21015030,CP,Parque Arqueologic,San Agustin,Huila,1800,18.7,18.8,18.7,18.6,18.3,17.6,17,17.2,17.9,18.4,18.5,18.5,18.2,23.9,24,23.5,23.3,22.8,21.8,21,21.6,22.8,23.5,23.5,23.6,22.9,24,13.9,14.1,14.3,14.4,14.3,13.8,13.2,13,13.2,13.8,14.1,14,13.8,13
-75.58,2.94,21125010,CO,Sta Maria,Santa Maria,Huila,1300,20.8,20.9,21.1,21.1,21.1,21,20.9,21,21.2,21,20.8,20.8,21,25.9,26.2,26.2,26,26.3,26.3,26.4,27.1,27.5,26.3,25.4,25.6,26.3,27.5,15.8,15.9,16.4,16.7,16.6,16.3,15.9,15.6,15.8,16.1,16.3,16,16.1,15.6
-75.83,1.87,21035040,CO,Libano El,Suaza,Huila,1045,22.9,22.8,22.6,22.6,22.4,22.1,22,22,22.2,22.6,22.7,22.7,22.5,28.4,28.5,27.7,27.7,27.4,27.1,27,27.2,27.8,27.9,27.9,28.1,27.7,28.5,17.1,17.1,17.3,17.3,17.3,17.1,16.9,16.9,16.7,17,17.2,17,17.1,16.7
-75.07,3.01,21115070,CO,Portal El,Tello,Huila,1300,22.2,22.4,22.2,22,22,22.1,22,22.5,22.8,22.1,21.6,21.7,22.1,26.2,26.5,26.3,25.9,25.9,26.1,26.2,27.2,27.6,26.4,25.1,25.3,26.2,27.6,18.8,18.8,18.7,18.6,18.7,18.6,18.4,18.7,18.9,18.5,18.2,18.5,18.6,18.2
-75.11,3.37,21145040,AM,San Alfonso,Villavieja,Huila,440,28.4,27.9,28.6,27.9,28.2,28.7,29.2,30.1,29.8,28.3,27.3,27.5,28.5,33.6,34.1,33.8,33.5,33.9,35,35.4,36.4,36.2,34.1,32.5,32.6,34.3,36.4,22.7,23,22.9,22.7,22.7,22.9,22.9,23.3,23.3,22.7,22.6,22.4,22.8,22.4
-75.18,3.33,21115060,CO,San Jose,Villavieja,Huila,400,28.7,28.9,28.6,28.2,28.3,28.8,29.2,30,29.9,28.6,27.6,27.8,28.7,33.2,33.6,33,32.6,32.8,33.6,34.2,35.2,35.2,33.3,31.5,31.7,33.3,35.2,23.3,23.4,23.4,23.2,23.2,23.2,23.1,23.6,23.7,23.3,23.1,23.1,23.3,23.1
-75.22,3.22,21115080,CO,Villavieja Ffcc,Villavieja,Huila,430,27.8,28,27.7,27.5,27.5,27.8,28,28.7,28.8,27.6,26.9,27.2,27.8,34,34.3,33.6,33.2,33.4,34.2,34.7,35.6,35.7,34,32.4,32.7,34,35.7,22,22.2,22.2,22.1,22,21.6,21.6,22.1,22.4,22.1,22,22,22,21.6
-72.53,11.13,15065050,CP,Camp Intercor,Albania,La Guajira,122,27.1,27.5,28.1,28.5,28.3,28.6,29.1,29,28.2,27.4,27.2,26.7,28,32.6,33.4,34.4,34.4,34.3,34.3,34.9,35.4,34.5,33.1,32.5,31.8,33.9,35.4,22,22.6,23.1,23.6,23.5,23.8,23.9,23.4,22.3,21.8,22.1,21.9,22.9,21.8
-73.41,11.25,15035020,CO,Termoguajira,Dibulla,La Guajira,5,26.1,26,26.1,26.6,27,27.5,27.8,27.5,26.8,26.5,26.3,26.3,26.7,30.9,30.8,30.5,30.9,31.6,32.4,32.9,32.6,31.6,31.1,30.9,30.6,31.4,32.9,19.4,19,19.8,20.6,21.2,21.7,21.6,21.2,21.1,21.2,21.4,20.7,20.9,19
-72.83,10.9,15065040,CO,Pauli La,Fonseca,La Guajira,170,27.3,27.7,28.1,28.3,28.1,28.6,29,28.8,28,27.6,27.1,26.9,28.1,33.2,34.1,34.2,34.2,34,34.9,35.3,35,34.5,33.8,33,32.4,34.1,35.3,22.1,22.1,22.4,22.9,23.5,24,24,23.7,23.1,22.9,23,22.4,23,22.1
-72.62,11.14,15065130,CP,Mi La,Hatonuevo,La Guajira,80,27.4,27.9,28.7,29.1,29.1,29.5,29.9,29.8,28.7,27.9,27.5,27.1,28.6,32.2,32.7,33.6,34,34.1,34.5,34.9,35.4,34.4,33.1,31.9,31.5,33.6,35.4,23.2,23.5,23.9,24.5,24.5,24.8,25.1,25,24.2,23.9,23.9,23.4,24.1,23.2
-72.37,11.22,15085030,CO,Esc Agr Carraipia,Maicao,La Guajira,118,25.8,26.1,26.7,27.2,27.7,27.9,28.1,28.2,27.6,27,26.5,26,27.1,30.3,31.3,32.3,32.7,32.9,32.9,33.6,34.2,33,31.8,30.7,30,32.3,34.2,21.5,21.8,22.4,23,23.4,23.7,23.7,23.7,23.1,22.5,22.5,21.8,22.8,21.5
-72.48,11.78,15075030,CP,Maure,Maure,La Guajira,1,28.1,28,28.1,28.5,29.1,29.9,30.1,29.4,29.2,28.7,28.7,28.3,28.8,32.3,32.4,32.6,32.7,33.4,34.6,35,34.7,33.8,33,32.6,32.5,33.3,35,23.9,24,24.4,24.3,24.7,25.3,25,25,25.1,24.7,24.4,24.1,24.6,23.9
-72.92,11.53,15065010,SP,Apto A.Padilla,Riohacha,La Guajira,4,27.1,27.2,27.4,28,28.8,29.7,29.9,29.5,28.5,28,27.7,27.3,28.3,32.5,32.6,32.8,33,33.5,34.5,35.2,35.1,33.7,32.8,32.2,32.4,33.4,35.2,22.3,22.7,23.5,24.5,25.2,25.6,25.6,25.3,24.5,24,23.6,23,24.2,22.3
-73.03,11.26,15045010,CO,Matitas,Riohacha,La Guajira,20,26.6,26.8,27.3,27.6,27.7,28.4,28.9,28.5,27.7,27.1,27.1,26.7,27.5,32.9,32.9,33.5,33.9,34,34.6,35.2,35.3,34.4,33.1,32.5,32.3,33.8,35.3,21.2,21.5,21.4,22.3,23.1,23.9,24,23.7,23.1,23,22.8,21.8,22.6,21.2
-71.28,12.18,15085020,CP,zareth,Uribia,La Guajira,85,25.7,25.8,26.3,26.9,27.5,27.9,27.8,28.3,28.4,27.8,27.1,26.1,27.1,30.3,31,31.3,31.6,32.1,32.5,32.8,33.5,33.4,32.4,31,30.2,31.9,33.5,23.4,23.2,23.6,24.5,25.1,25.5,25.1,24.1,25.3,24.6,24.4,23.5,24.4,23.2
-72,12.22,15075060,CP,Pto Bolivar,Uribia,La Guajira,10,27,27,27.4,28.1,29,29.5,29.3,29.5,29.3,28.8,28.3,27.5,28.4,31.4,31.6,32.2,32.9,33.6,34.3,34.3,34.5,33.8,32.9,32.1,31.5,32.9,34.5,24.6,24.5,24.9,25.6,26.3,26.8,26.6,26.9,26.9,26.1,26,25.2,25.8,24.5
-71.82,11.69,15085040,CO,Rancho Grande,Uribia,La Guajira,50,27.8,27.8,28.3,29,29.4,29.8,29.9,30.1,29.7,29,28.7,28.1,29,31.9,32.3,32.9,33.5,33.8,34.3,34.5,34.6,33.7,32.4,32.3,32,33.2,34.6,24.1,24.1,24.5,25.4,26,26.4,26.2,26.4,26.3,25.8,25.6,24.8,25.5,24.1
-73.01,10.56,28015070,CO,Urumita,Urumita,La Guajira,255,27.4,28,28.5,28.4,27.8,27.9,28.4,28.3,27.5,27,26.9,26.8,27.8,33.6,34.6,34.9,34.3,33.1,33.1,34.1,34.1,33,31.9,31.7,32.1,33.4,34.9,21,21.4,22,22.8,22.8,22.7,22.6,22.7,22.3,22,22,21.5,22.2,21
-74.21,10.99,15015020,CO,Ye La,Ciega,Magdale,20,28.4,28.9,29.2,29.5,29.1,29,28.9,28.5,28.1,27.7,27.9,27.9,28.6,33.1,33.5,33.7,33.9,33.3,33.3,33.3,33.1,32.7,32.3,32.3,32.6,33.1,33.9,20.7,21.5,22.5,23.2,23.1,22.9,22.3,22.2,22.2,21.8,21.5,20.7,22.1,20.7
-73.97,9.05,25025090,SP,Apto Las Flores,El Banco,Magdale,34,28.5,28.9,29.3,28.9,28.5,28.5,28.6,28.7,28.1,27.9,27.9,28.1,28.5,34.2,35.1,35.1,34.3,33.5,33.4,33.9,34,33.3,33.1,32.9,33.4,33.8,35.1,22.3,23,23.5,23.3,23.4,23.5,23.4,23.3,23,23,23.1,22.7,23.1,22.3
-74.51,10.51,29065080,CO,Media Lu,Pivijay,Magdale,20,27.5,27.9,28.4,28.7,28.4,28.4,28.3,28.2,27.9,27.6,27.6,27.6,28,34.5,35.1,35.7,35.7,34.7,34.4,34.5,34.4,33.9,33.4,33.2,33.6,34.5,35.7,20.8,21.1,21.7,22.7,23.2,22.9,22.7,22.5,22.6,22.4,22.3,21.5,22.2,20.8
-74.27,9.3,25025320,CP,Alamos Los,San Sebastian de Buevista,Magdale,25,28,28.9,29.4,29,28.5,28.4,28.7,28.5,27.9,27.5,27.4,27.5,28.3,34.7,35.8,35.8,35.4,34.4,34.4,35.2,34.4,33.2,33.4,32.8,33.8,34.5,35.8,21.1,21.8,22.8,23.5,23.5,23.2,23.1,22.9,22.8,22.9,22.8,22.1,22.7,21.1
-74.19,9.38,25025300,CO,Seis El,San Sebastian de Buevista,Magdale,50,29,29.6,29.7,29.1,28.7,28.7,28.9,28.9,28.6,28.2,28.3,28.4,28.8,35.8,36.3,36,34.6,33.3,33.8,34.4,34,33.2,32.4,32.7,33.9,34.1,36.3,21.2,22.2,23.1,23.2,23.2,22.9,22.9,22.9,22.7,22.5,22.6,21.6,22.6,21.2
-73.93,11.09,15015110,CO,Alto de Mira,Santa Marta,Magdale,1080,19.8,19.7,20.4,21,21.6,21.6,21.4,21.5,21.4,21.1,20.8,20.2,20.9,23.7,23.7,24.9,25.2,25.7,25.8,25.4,25.8,25.8,25.3,24.4,23.8,25.1,25.8,16.6,16.5,17.5,18.3,19,19.1,18.8,19.1,19.2,19,18.6,17.6,18.4,16.5
-74.23,11.13,15015050,SP,Apto Simon Bolivar,Santa Marta,Magdale,4,27.4,27.9,28.4,28.9,29.1,29.1,28.8,28.6,28.3,27.9,27.8,27.5,28.3,33,33.6,33.8,33.6,32.9,33,33,32.8,32.5,32.1,32.1,32.4,32.9,33.8,22.3,23.2,24.2,25.3,25.5,25.1,24.6,24.5,24.3,24.2,23.8,22.7,24.1,22.3
-73.91,11.29,15015100,CO,Parque Tayro,Santa Marta,Magdale,30,25.1,25.4,25.7,26.4,26.9,27.2,27,27.1,27,26.6,26.5,25.6,26.4,29.3,29.4,29.6,29.8,30.4,30.9,31,31.3,31.4,31,30.4,29.6,30.4,31.4,20.7,21.3,22.1,22.9,23.4,23.5,23.3,23.2,22.8,22.9,22.7,22.1,22.6,20.7
-74.03,11.08,15015060,CP,San Lorenzo,Santa Marta,Magdale,2200,12.4,13,13.3,13.9,14.3,14.4,14.2,14.1,13.7,13.5,13.3,12.7,13.6,17.4,17.7,17.9,18,18.2,18.6,18.6,18.4,17.8,17.2,16.9,17.1,17.8,18.6,7.7,8.2,8.8,9.7,10.2,10.2,9.9,10,9.8,9.7,9.2,8.1,9.3,7.7
-74.19,11.22,15015040,CO,Univ Tec Magdale,Santa Marta,Magdale,7,27.6,27.8,28.1,28.4,28.2,28.6,28.6,28,27.4,26.9,27.6,27.4,27.9,31.9,32.3,33,33,32.8,33.1,33,32.4,32.1,31.3,31.5,31.3,32.3,33.1,22.3,22.6,23.1,23.5,23.4,23.2,23.7,23.2,22.7,22.5,22.6,22.8,22.9,22.3
-74.2,10.72,29065020,CO,Padelma,Zo Banera,Magdale,20,27.3,27.8,28.3,28.4,28.1,28.1,28.1,27.7,27.5,27.2,27.3,27.3,27.8,33.7,34.1,34.6,34.6,33.8,33.8,33.9,33.7,33.6,33.2,33.2,33.3,33.8,34.6,20.4,20.9,21.8,22.7,22.9,22.7,22.4,22.3,22.2,22.1,21.9,21.1,22,20.4
-74.15,10.76,29065030,CO,Prado Sevilla,Zo Banera,Magdale,18,27,27.7,28.3,28.4,27.9,27.5,27.4,27.4,27.1,26.8,26.8,26.9,27.4,33.2,33.7,34.1,34.2,33.4,33.1,33.1,33.2,32.9,32.5,32.3,32.7,33.2,34.2,20.2,20.8,21.6,22.5,22.6,21.7,22.2,21.9,21.7,21.7,21.6,20.7,21.6,20.2
-72.95,4.47,35105050,CO,Guaicaramo,Barranca de Upia,Meta,190,27.4,27.7,27.5,26.6,26.2,25.7,25.5,25.9,26.6,26.7,26.6,27.1,26.6,33.5,33.9,33.4,31.6,30.6,29.8,29.7,30.6,31.2,31.6,31.6,32.3,31.7,33.9,21.1,21.3,21.8,22.3,22,21.6,21.3,21.7,21.9,22.2,22.1,21.6,21.7,21.1
-73.36,4.3,35045020,CO,Caba La Hda,Cumaral,Meta,305,26.7,27,26.6,25.6,25.2,24.6,24.3,24.9,25.4,25.5,25.7,26,25.6,32.8,33.4,32.5,31,30.2,29.3,29.1,30,30.8,31,31,31.5,31.1,33.4,21.3,21.8,22.2,22,21.7,21.3,20.9,21.1,21.4,21.6,21.8,21.5,21.6,20.9
-73.7,3.37,32075060,CO,Cooperativa La,Fuente de Oro,Meta,280,25.8,25.9,25.8,25.4,25.2,24.7,24.6,24.8,25.3,25.4,25.5,25.7,25.4,32,32.2,31.7,30.7,30.3,29.8,29.7,30.5,31.1,31.2,31,31.2,30.9,32.2,20.4,20.5,20.5,20.6,20.6,20.4,20.3,20.3,20.7,20.8,20.9,20.7,20.6,20.3
-73.72,3.52,32075040,CO,Holanda La,Grada,Meta,360,26.6,26.9,26.4,25.7,25.3,24.7,24.5,24.8,25.4,25.5,25.6,25.8,25.6,32.4,32.8,32,30.8,30.3,29.6,29.5,30.3,30.9,31,30.9,31.3,31,32.8,21.2,21.3,21.7,21.7,21.6,21.2,20.8,20.9,21.1,21.4,21.6,21.6,21.3,20.8
-73.93,2.44,32035020,CO,Balsora La,La Macare,Meta,372,26.2,26.4,25.8,25.3,24.7,24.1,23.8,24.3,24.8,25.2,25.6,26.2,25.2,32.5,33.1,31.4,30,29.4,28.9,28.9,29.7,30.5,31,31.1,31.2,30.5,33.1,20.2,20.7,21.1,21.3,21,20.7,20.1,20.2,20.5,20.9,21.4,21.3,20.7,20.1
-73.79,2.18,32035010,CP,Macare La,La Macare,Meta,350,26.8,26.7,26.4,25.6,25.3,24.5,24.2,24.8,25.3,25.5,25.9,26.2,25.6,32.3,32.7,31.9,30.7,30.3,29.3,29.1,30,30.7,31.1,31,31.3,30.9,32.7,21.9,21.7,22.2,22.2,22,21.6,21.1,21.3,21.5,21.9,22.3,22.2,21.8,21.1
-74.03,3.53,32065010,CO,Lejanias,Lejanias,Meta,680,24.4,24.9,24.2,23.4,23,22.5,22.2,22.9,23.4,23.4,23.4,23.7,23.4,29.6,29.8,29,28,27.5,26.9,26.8,27.7,28.4,28.3,28.1,28.5,28.2,29.8,19.4,19.9,20.2,19.9,19.8,19.3,18.9,19.2,19.4,19.7,19.7,19.4,19.6,18.9
-74.04,3.38,32075050,CO,Mesetas,Mesetas,Meta,620,25.3,25.5,25.2,24.5,24.1,23.6,23.2,23.6,24.2,24.5,24.6,24.9,24.4,30.1,30.7,30,29.1,28.5,27.7,27.4,28.4,29.1,29.2,29,29.6,29.1,30.7,18.4,18.6,19.3,19.8,19.9,19.5,19.1,19.1,19.2,19.5,19.8,19.3,19.3,18.4
-73.37,3.27,32075080,CO,Pto Lleras,Puerto Lleras,Meta,245,26.6,27,26.7,26.1,25.8,25.2,24.9,25.3,25.7,26,25.9,26.3,25.9,33.2,33.6,32.9,31.4,31.1,30.4,30.2,30.8,31.6,31.9,31.8,32.1,31.7,33.6,20.6,20.9,21.7,22.1,22.1,21.6,21.3,21.4,21.6,21.8,21.9,21.4,21.5,20.6
-72.16,4.34,35125010,CO,Margaritas Las Hda,Puerto Lopez,Meta,150,27.8,28,27.9,26.9,26.3,25.5,25.4,25.7,26.3,26.5,26.6,26.9,26.6,34.3,34.8,34.4,32.5,31.2,30.1,30.2,30.8,31.8,32,32.1,32.8,32.2,34.8,21.7,22.1,22.2,22.6,22.2,22,21.8,22,22.2,22.4,22.5,21.9,22.1,21.7
-73.35,3.63,35015050,CO,Barbascal,San Martin,Meta,250,26.4,26.6,26.1,25.6,25.2,24.6,24.4,24.9,25.5,25.6,25.7,26.1,25.6,33.3,33.5,32.5,30.9,30.3,29.5,29.5,30.4,31.1,31.2,31.2,32,31.2,33.5,20.3,20.7,21.4,21.7,21.6,21.2,21,21,21.1,21.4,21.4,21,21.2,20.3
-73.62,4.16,35035020,SP,Apto Vanguardia,Villavicencio,Meta,423,26.7,27.2,26.8,25.7,25.2,24.5,24.2,24.9,25.5,25.6,25.6,25.9,25.6,31.6,32,31.4,30.2,29.5,28.7,28.5,29.4,30.3,30.5,30.4,30.7,30.3,32,21.3,22,22.2,21.6,21.2,20.7,20.3,20.5,20.6,20.9,21.2,21,21.1,20.3
-73.47,4.06,35025020,AM,Libertad La,Villavicencio,Meta,336,27,27.4,27.1,25.8,25.2,24.5,24.3,25,25.5,25.6,25.9,26.2,25.8,32.6,33.1,32.4,30.8,29.9,29.1,29,29.9,30.7,30.9,30.9,31.3,30.9,33.1,22.1,22.5,22.7,22.2,21.9,21.4,21.1,21.3,21.4,21.7,22,21.9,21.8,21.1
-73.58,4.08,35035070,CP,Unillanos,Villavicencio,Meta,340,26.4,26.6,26.2,25.5,24.9,24.2,24.2,24.6,25.1,25.4,25.3,25.7,25.3,32.1,32.5,31.8,30.6,29.9,29.1,28.9,29.7,30.2,30.9,30.6,31,30.6,32.5,20.9,21.4,21.6,21.4,21.3,20.8,20.7,20.8,20.9,21.1,21.3,21,21.1,20.7
-73.75,3.12,32075030,CO,Vista Hermosa,Vistahermosa,Meta,325,27.4,27.4,26.7,25.8,25.5,24.7,24.7,25.2,25.6,25.8,26.2,26.7,26,33.1,33.2,32.1,30.5,29.9,29.1,29.3,30.2,31,31.1,31.1,31.6,30.9,33.2,23,22.9,22.5,22.1,22,21.3,21.1,21.2,21.5,21.8,22.4,22.9,22,21.1
-77.68,0.86,52055010,SP,Apto San Luis,Alda,rino,2961,11.2,11.3,11.4,11.4,11.3,10.6,10,10,10.5,11.1,11.4,11.3,11,16.3,16.4,16.3,16.4,16,15.1,14.6,14.9,15.9,16.8,16.9,16.6,16,16.9,5.8,6,6.4,6.6,6.6,6,5.1,4.6,4.6,5.6,6.2,6.2,5.8,4.6
-78.09,1.25,51025050,CP,Altaquer,Barbacoas,rino,1010,20.4,20.6,20.8,20.9,20.8,20.5,20.4,20.4,20.3,20.3,20.2,20.2,20.5,23.5,23.9,24.2,24.3,24,23.7,23.8,23.9,23.7,23.6,23.5,23.4,23.8,24.3,17.8,18.1,18.2,18.2,18.3,18,17.9,17.9,17.9,18,17.9,18,18,17.8
-78.14,1.67,52065020,CO,Barbacoas,Barbacoas,rino,60,25.9,26.1,26.2,26.2,26.1,26,25.9,25.9,25.8,25.7,25.7,25.7,25.9,30.2,30.5,30.8,30.9,30.3,29.9,29.9,29.8,29.7,29.6,29.5,29.7,30.1,30.9,22,22.1,22.2,22.1,22.1,21.8,21.9,21.9,22,21.9,22,22,22,21.8
-77.29,1.39,52045020,SP,Apto Antonio rin,Chachagui,rino,1816,18.7,19,19.1,19.1,19.3,19.6,19.8,20.2,19.8,18.9,18.4,18.4,19.2,22.9,23.3,23.4,23.4,23.7,24.3,24.9,25.6,25.3,23.6,22.5,22.4,23.8,25.6,14.6,14.8,15,15.1,15.2,14.8,14.5,14.7,14.5,14.6,14.7,14.8,14.8,14.5
-77.47,1.18,52055030,CO,Bombo,Consaca,rino,1493,19.4,19.6,19.8,19.7,19.8,20,20.5,20.8,20.4,19.8,19.4,19.3,19.9,25.2,25.5,25.7,25.3,25.3,25.6,26.3,27.1,27.2,26.2,24.9,24.9,25.8,27.2,14.9,15.1,15.4,15.5,15.5,15.1,14.8,15,14.8,14.9,15.1,15.4,15.1,14.8
-77.47,1.27,52055070,CO,Ospi Perez,Consaca,rino,1700,19.1,19.4,19.6,19.4,19.3,19.7,20,20.2,19.8,19.1,18.9,19,19.5,24.8,25.1,25.5,24.8,24.7,25.3,26,26.4,26.1,24.8,24.6,24.6,25.2,26.4,15,15.1,15.3,15.3,15.2,15,14.6,14.9,14.7,14.8,14.8,14.8,15,14.6
-77.28,1.16,52055040,AM,Bota,Pasto,rino,2820,12.3,12.5,12.5,12.7,12.7,12.2,11.6,11.7,12.1,12.5,12.4,12.3,12.3,17,17.1,17,17.4,17.2,16.5,15.9,16.2,17,17.5,17.2,17.1,16.9,17.5,8.4,9,9.2,9.5,9.5,9.3,8.7,8.2,8.4,8.8,8.8,8.8,8.9,8.2
-77.16,1.16,47015100,CP,Encano El,Pasto,rino,2830,12,12,12,12.1,11.9,11.3,10.6,10.5,11.1,11.8,12.2,12.3,11.6,16.5,16.6,16.3,16.3,15.9,14.8,14.2,14.2,15.2,16.5,16.8,16.8,15.8,16.8,8.4,8.5,8.6,8.8,8.9,8.6,7.8,7.6,7.3,8,8.5,8.4,8.3,7.3
-77.3,1.2,52045010,AM,Obonuco,Pasto,rino,2710,12.9,13.1,13.1,13.3,13.3,12.9,12.4,12.5,12.9,13,12.9,12.9,12.9,17,17.2,17.3,17.5,17.4,16.8,16.3,16.7,17.5,17.8,17.4,17.3,17.2,17.8,9.5,9.6,9.7,10,10.1,10,9.4,9.4,9.3,9.4,9.6,9.6,9.6,9.3
-77.3,0.8,47015080,CO,Monopamba,Puerres,rino,1776,16.9,17,17.1,17.1,16.8,16.1,15.6,15.9,16.5,17.1,17.3,17.2,16.7,20.9,20.9,21.3,21.1,20.7,19.3,18.8,19.7,21.1,21.8,21.9,21.6,20.8,21.9,13.5,13.7,13.7,13.9,14.1,13.7,12.9,12.9,13,13.3,13.6,13.7,13.5,12.9
-77.58,1.37,52055060,CO,Tama,Samaniego,rino,1500,19.5,19.7,19.8,19.8,19.9,19.9,20,20.2,20,19.8,19.5,19.5,19.8,25,25.5,25.4,25.3,25.5,25.6,26.2,26.8,26.7,25.7,24.9,24.8,25.6,26.8,14.5,14.4,14.5,14.8,14.9,14.4,13.7,13.7,13.9,14.6,14.8,14.8,14.4,13.7
-78.73,1.82,51035020,CP,Cccp Dl Pacifico,San Andres de Tumaco,rino,1,25.8,26.1,26.3,26.5,26.4,26.1,25.9,25.9,25.8,25.8,25.6,25.7,26,29,29.3,29.6,29.7,29.4,29.2,29.1,29.1,28.9,29,28.8,28.8,29.1,29.7,23.3,23.5,23.8,23.8,23.8,23.6,23.5,23.5,23.6,23.6,23.5,23.4,23.6,23.3
-78.7,1.55,51025010,AM,Mira El Gja,San Andres de Tumaco,rino,16,25.7,26,26.2,26.2,26,25.4,25.4,25.3,25.2,25.3,25.3,25.4,25.6,30,30.6,31.1,31,30.3,29.8,29.7,29.5,29.3,29.4,29.5,29.4,30,31.1,22.4,22.8,22.7,23.1,23,22.9,22.5,22.5,22.6,22.6,22.5,22.6,22.7,22.4
-77.03,1.54,52045030,CO,San Berrdo,San Berrdo,rino,2190,15.6,15.9,15.9,16,16,15.7,15.4,15.5,15.8,15.7,15.5,15.5,15.7,21.2,21.4,21.4,21.8,21.6,21.5,21.1,21.4,22.1,21.7,20.9,20.9,21.4,22.1,11.4,11.4,11.7,11.9,11.9,11.2,10.5,10.4,10.5,11.2,11.7,11.6,11.3,10.4
-77.64,1.03,52055100,CO,Villa Rosa,Sapuyes,rino,3000,11.4,11.6,11.7,11.8,11.8,11.6,10.9,10.6,11.1,11.5,11.5,11.6,11.4,16.3,16.4,16.4,16.8,16.5,16.3,15.8,15.6,16.3,16.7,16.7,16.6,16.4,16.8,5.8,6.1,6.9,6.9,7.1,6.7,5.9,5.7,5.3,5.9,6.3,6.4,6.2,5.3
-77.27,1.55,52045040,CO,Tamingo,Tamingo,rino,1875,17.3,17.5,17.7,17.7,17.9,18.1,18.4,18.8,18.1,17.5,17.1,17.1,17.8,22.3,22.7,22.9,22.8,22.8,23.2,24,24.8,24.4,23,21.6,21.6,23,24.8,14.3,14.4,14.6,14.6,14.7,14.6,14.4,14.5,14.1,14.2,14.3,14.3,14.4,14.1
-77.39,1.11,52055090,CP,Sindagua,Tangua,rino,2800,13.1,13.2,13.2,13.3,13.3,13.1,12.9,13.1,13.3,13.3,12.9,13,13.1,17.2,17.4,17.4,17.6,17.5,17.4,17.3,17.7,18.3,18,17,16.9,17.5,18.3,9.2,9.4,9.7,9.7,9.7,9.3,8.8,8.7,8.9,9.2,9.5,9.6,9.3,8.7
-77.64,1.07,52055020,CO,Paraiso El,Tuquerres,rino,3120,11.1,11.1,11.2,11.4,11.4,10.9,10.2,10.3,10.7,11.1,11.1,11.1,11,15.8,15.7,15.8,15.9,15.7,15.2,14.7,14.8,15.5,15.9,15.9,15.8,15.6,15.9,7.2,7.3,7.5,7.8,7.7,7.3,6.5,6.5,6.6,7,7.3,7,7.1,6.5
-73.22,8.09,16055040,CP,Abrego Centro Admo,Abrego,Norte de Santander,1430,20.1,20.5,21,21.2,21.3,21.3,21.3,21.3,21,20.9,20.7,20.3,20.9,26.6,27.2,27.6,27.2,27.1,27.3,27.6,27.8,27.1,26.6,26.2,26.1,27.1,27.8,12.3,12.7,13.4,14.5,14.8,14.1,13.5,13.7,14.3,14.3,14.1,13.1,13.7,12.3
-73.05,7.74,23195180,CO,Esc Agr Cachira,Cachira,Norte de Santander,1882,16.3,16.8,17.1,17.3,17.5,17.5,17.2,17.2,16.9,16.8,16.7,16.5,17,22.4,22.8,22.6,22.3,22.3,22.3,22.3,22.5,22,21.5,21.4,22,22.2,22.8,10.5,11.1,11.7,13,13.4,13.2,12.7,12.6,12.6,12.9,12.5,11.3,12.3,10.5
-72.6,7.58,16015060,CO,Bloy,Chicota,Norte de Santander,1235,19.6,20,20.4,20.8,21,20.5,20.2,20.7,20.7,20.6,20.2,19.4,20.3,25.2,25.4,25.5,25.9,26.8,26.7,26.6,27.4,27.3,26.6,25.6,24.8,26.1,27.4,15,15.6,16.2,16.7,16.6,15.9,15.5,15.8,15.9,16.3,16,15.1,15.9,15
-73.34,8.47,16055090,CP,Ins Agr Convencion,Convencion,Norte de Santander,1076,20.8,21.3,21.8,22.2,22.6,22.5,22.3,22.7,22.5,22.1,21.6,21,21.9,24.5,25,25.6,26,26.8,26.8,26.7,27.4,27.4,26.8,25.7,24.6,26.1,27.4,17.7,17.9,18.4,18.9,19,18.6,18.2,18.4,18.5,18.5,18.5,18.1,18.4,17.7
-72.51,7.93,16015010,SP,Apto Camilo Daza,Cucuta,Norte de Santander,250,25.8,26.3,26.7,27,27.8,28.1,28,28.5,28.4,27.4,26.5,25.8,27.2,30.3,30.8,31.1,31.5,32.8,32.9,33,33.9,34,32.7,31.2,30.1,32,34,21.3,21.8,22.3,22.7,23.4,23.9,23.6,23.7,23.3,22.7,22.4,21.7,22.7,21.3
-72.57,7.85,16025010,CP,Carmen de Tonchala,Cucuta,Norte de Santander,285,25.7,26.3,26.6,27.1,28,28.5,28.4,28.9,28.8,27.8,26.6,25.9,27.4,30.7,31.2,31.4,32.1,33.1,33.1,33.2,34,34.2,33.1,31.6,30.5,32.4,34.2,20.2,20.8,21.5,22,22.4,22.5,22.3,22.6,22.4,22,21.5,20.8,21.8,20.2
-72.47,8.17,16025040,CP,Cinera-Villa Olga,Cucuta,Norte de Santander,100,26.5,26.9,27.3,27.6,28.3,28.3,28.3,28.5,28.4,27.9,27.3,26.6,27.6,31.1,31.5,31.8,32,32.6,33,33,33.8,33.4,32.5,31.7,31,32.4,33.8,21.3,21.7,22.3,22.8,22.9,22.7,22.4,22.6,22.6,22.5,22.4,21.9,22.4,21.3
-72.43,8.23,16015040,CO,Sta Isabel,Cucuta,Norte de Santander,90,26.5,26.8,27,27.5,27.8,27.9,27.8,27.8,27.8,27.6,27.4,26.7,27.4,30.7,31.6,31.8,32.6,32.4,33.1,33.1,33.3,32.8,32.6,32.1,30.7,32.3,33.3,19.7,20,20.4,20.9,21.2,20.6,19.8,20.2,20.5,20.4,20.6,19.6,20.5,19.6
-73.08,8.59,16045020,CO,Tarra El,El Tarra,Norte de Santander,180,26.8,27,26.6,27.2,27.5,27.5,27.5,27.5,27.5,27.4,26.8,26.7,27.2,31.7,31.7,31.8,32,32.2,32.3,32.5,32.4,32.5,32.4,31.8,31.7,32.1,32.5,20.1,20.4,20.7,21.1,21.2,20.8,20.7,20.7,20.7,20.7,20.5,20.4,20.7,20.1
-72.53,8.23,16025020,CO,Risaralda,El Zulia,Norte de Santander,90,26.7,27,27.2,27.3,28.2,28.3,28.5,28.6,28,27.8,27,26.7,27.6,32.4,32.9,32.9,33.1,33.4,34,33.6,34.3,33.7,33.2,32.8,32.4,33.1,34.3,21.4,22.3,21.8,22.8,22.6,23,22.2,22.3,22.5,22.4,22.4,22.1,22.3,21.4
-72.44,7.42,16015090,CP,Tama Parque l,Herran,Norte de Santander,2500,13.1,13.3,13.8,14.2,14.2,13.8,13.5,13.8,13.9,13.8,13.8,13.5,13.7,18.8,18.4,18.5,18.8,18.6,17.9,17.5,18.2,18.7,18.8,18.6,18.3,18.4,18.8,7.2,8.7,9.2,10.3,10.6,10.5,10.1,10,10,9.8,9.5,8.5,9.6,7.2
-73.24,8.22,16055060,CO,Playa La,La Playa,Norte de Santander,1500,18.6,19.2,19.8,20.3,20.5,20.5,20.7,20.6,20.1,19.8,19.4,18.9,19.9,23.9,24.8,25.5,25.9,26.2,26.6,27,27.1,26.3,25.3,24.2,23.5,25.5,27.1,14.1,14.7,15.1,16,15.7,15.1,14.8,14.8,15.1,15.5,15.3,14.6,15.1,14.1
-73.36,8.32,16055010,CP,Apto Aguas Claras,Oca,Norte de Santander,1435,20.1,20.8,21.3,21.7,21.9,21.8,21.8,21.7,21.5,21.4,21,20.4,21.3,25.7,26.3,26.8,27.1,27.4,27.5,27.8,27.8,27.2,26.7,26,25.6,26.8,27.8,14.3,15.2,15.8,17,17.2,16.4,15.9,16.1,16.5,16.7,16.2,15.4,16.1,14.3
-73.32,8.24,16055100,CO,Univ Fco P Santand,Oca,Norte de Santander,1150,20.4,20.9,21.5,21.7,22,22,22.1,22.1,21.8,21.5,21.1,20.6,21.5,26.2,26.6,27,26.9,27.1,27.5,28,27.8,27.2,26.6,25.9,25.4,26.9,28,13.7,14.2,15.2,16.3,16.9,16.2,15.3,15.6,16.1,16.3,16.1,14.9,15.6,13.7
-72.65,7.37,16015020,AM,Iser Pamplo,Pamplo,Norte de Santander,2340,13.9,14.4,15,15.6,15.9,15.7,15.4,15.6,15.7,15.4,14.9,14.3,15.1,19,19.2,19.5,19.5,19.8,19.4,19.2,19.7,20,19.7,19.1,18.8,19.4,20,7.9,8.8,9.8,11.1,11.6,11.5,11.1,11,10.6,10.5,10.1,8.8,10.2,7.9
-72.53,7.57,16015030,CO,Esperanza La,Ragonvalia,Norte de Santander,1760,15.9,16.2,16.8,17.3,17.6,17.3,17,17.2,17.3,17.3,17,16.3,16.9,20.8,21.1,21.5,22,22.4,22.1,21.7,22.2,22.3,22,21.2,20.7,21.7,22.4,11.5,12,12.7,13.5,13.8,13.4,12.9,13.1,13.2,13.4,13.1,12.2,12.9,11.5
-72.8,7.77,16025060,CO,Francisco Romero,Salazar,Norte de Santander,1000,21.1,21.4,21.8,22.3,22.6,22.5,22.3,22.7,22.7,22.1,21.8,21.1,22,26.4,26.5,26.8,27.3,28.2,28.5,28.6,29.4,29.1,27.9,27.1,26.2,27.7,29.4,16.8,17.2,17.7,18.3,18.3,17.8,17.4,17.7,17.7,17.8,17.7,17.2,17.6,16.8
-72.83,7.77,16025030,CP,Salazar,Salazar,Norte de Santander,860,21.7,22,22.4,22.9,23.3,23.1,23.1,23.5,23.5,23,22.5,21.9,22.7,26.3,26.5,26.7,27.4,28.3,28.2,28.5,29.3,29.2,28.1,27.1,26.3,27.7,29.3,17.8,18,18.6,19.3,19.1,18.6,18.2,18.5,18.5,18.4,18.3,17.8,18.5,17.8
-72.8,8.08,16035030,CO,Sardita,Sardita,Norte de Santander,320,25,25.6,26.1,26.5,27,27.4,27.5,27.8,27.2,26.5,25.9,25.2,26.5,30,30.9,31,31.5,32.7,33.5,33.8,34.3,33.5,32.1,30.9,29.7,32,34.3,20.1,20.8,21.4,21.9,21.7,21.4,21.3,21.4,21.3,21.3,21.2,20.8,21.2,20.1
-72.75,7.21,37015010,CO,Silos,Silos,Norte de Santander,2765,11.9,12.2,12.5,12.5,12.5,12,11.8,12,12.2,12.3,12.3,11.9,12.2,18.7,19.2,19,18.2,17.8,17.1,16.9,17.3,17.7,17.8,17.8,18,18,19.2,5.8,6.3,7,7.8,8.1,7.8,7.6,7.5,7.5,7.7,7.3,6.5,7.3,5.8
-73.29,8.44,16055020,CO,Teorama,Teorama,Norte de Santander,1160,20.4,21,21.5,21.8,22.3,22.4,22.2,22.5,22.4,22,21.4,20.7,21.7,24.2,24.7,25.5,25.5,26,26.1,26.1,26.5,26.2,25.8,25.1,24.3,25.5,26.5,17.3,17.7,18.1,18.8,19,18.7,18.2,18.3,18.4,18.5,18.5,18.1,18.3,17.3
-72.58,8.47,16035020,CO,Petrolea,Tibu,Norte de Santander,62,27.8,28,28.1,28.2,28.5,28.6,28.3,28.4,28.6,28.5,28.3,27.9,28.3,32.6,32.4,32.8,33,33.1,33.7,33.2,33.7,33.4,32.9,32.8,32.2,33.1,33.7,20.7,20.9,21.4,21.4,21.4,21.1,21,21.1,21,21.1,21.1,20.8,21.1,20.7
-72.73,8.64,16035010,CO,Tibu,Tibu,Norte de Santander,50,26.4,27.1,27.6,27.8,28,27.9,27.8,28.1,27.8,27.4,27,26.5,27.4,31.7,32.4,32.7,32.9,33.1,33.4,33.7,34,33.5,32.9,32.1,31.6,32.9,34,21.7,22.1,22.7,23.4,23.4,23.1,22.6,22.8,22.6,22.7,22.7,22.5,22.7,21.7
-76.88,1.18,47015040,CO,Michoacan,Colon,Putumayo,2100,16.2,16.1,16,16,15.7,15.2,14.8,14.9,15.3,15.9,16.4,16.3,15.7,21.5,21.2,21,20.9,20.3,19.7,19.1,19.2,20,21.1,21.6,21.3,20.6,21.6,11.2,11.3,11.3,11.6,11.6,12,10.8,10.7,10.6,11.1,11.6,11.5,11.3,10.6
-76.65,1.16,44015040,CO,Mocoa Acueducto,Mocoa,Putumayo,650,23.4,23.4,23.2,23,22.6,22,21.9,22.3,23,23.3,23.4,23.4,22.9,27.5,27.6,27.2,27.2,26.5,25.8,26.1,26.7,27.7,28.3,28.1,27.9,27.2,28.3,20.3,20.5,20.4,20.4,20.2,19.7,19.3,19.4,19.8,20.3,20.5,20.6,20.1,19.3
-74.78,0.18,47045010,CO,Pto Leguizamo,Puerto Leguizamo,Putumayo,147,26.7,26.3,25.9,25.5,25.2,24.6,24.4,25.1,25.5,25.8,26.2,26.3,25.6,31.9,31.7,31.1,30.4,29.8,29.1,29.3,30.3,31.2,31.4,31.4,31.5,30.8,31.9,22.7,22.7,22.7,22.8,22.6,22.1,21.7,21.9,22.3,22.5,22.7,22.7,22.4,21.7
-74.85,0.13,47035020,CO,Pto Ospi,Puerto Leguizamo,Putumayo,190,26.1,26,25.6,25.4,25.2,24.8,24.9,25.1,25.4,25.8,26,25.9,25.5,31.4,31.2,30.2,29.9,29.5,29,29.5,30,30.6,31,30.9,31.1,30.4,31.4,20.9,21.1,21.4,21.7,21.7,21.2,20.8,20.7,21,21.3,21.4,21.3,21.2,20.7
-74.67,-0.06,44115020,AM,Tagua La,Puerto Leguizamo,Putumayo,153,26.8,26.6,26,25.6,25.1,24.7,24.6,25.3,25.7,26,26.2,26.6,25.7,,,,,,,,,,,,,,,21.6,21.9,22.1,22.2,22,21.6,21.1,20.9,21.3,21.6,21.9,21.8,21.6,20.9
-76.93,1.17,47015090,CO,Primavera La,Sibundoy,Putumayo,2067,15.8,15.8,15.8,15.7,15.8,15.1,14.7,14.6,15,15.7,16.2,16.1,15.5,21.3,21.3,21.1,20.8,20.4,19.3,18.9,19.2,20.2,21.2,21.8,21.5,20.6,21.8,10.4,10.8,11,11.5,11.7,11.2,10.7,10.3,9.8,10.4,10.8,10.8,10.8,9.8
-76.57,0.84,47015070,CO,Pto Umbria,Villagarzon,Putumayo,358,25.5,25.4,25,25,24.7,24.2,24,24.5,25,25.3,25.4,25.5,25,31.5,31.4,30.2,30.5,30,29.1,29.2,29.7,31.2,31.7,31.3,31.1,30.6,31.7,21.5,21.5,21.3,21.2,21,20.7,20.5,20.7,20.6,21.1,21.3,21.3,21,20.5
-76.62,1.03,44015010,AM,Villagarzon,Villagarzon,Putumayo,440,24.9,24.8,24.5,24.2,23.9,23.5,23.2,23.7,24.4,24.7,24.6,24.6,24.3,30.3,30.1,29,29.1,28.5,27.4,27.6,28.5,30.1,30.5,30.2,29.9,29.2,30.5,21,21,21,20.4,20.6,20.3,20,20.1,20.1,20.6,21.1,20.6,20.6,20
-75.77,4.45,26125060,SP,Apto El Eden,Armenia,Quindio,1229,22.2,22.4,22.2,22,22,22.2,22.4,22.6,22,21.5,21.5,21.9,22.1,27.8,28,27.9,27.5,27.3,27.4,27.9,28.3,27.7,27.1,26.9,27.2,27.6,28.3,16.6,16.7,16.8,17.1,17.3,16.9,16.6,16.5,16.5,16.6,16.7,16.8,16.7,16.5
-75.67,4.52,26125070,CO,Bella La,Calarca,Quindio,1450,20.6,20.9,20.9,20.7,20.6,20.9,21.1,21.2,20.4,19.9,19.9,20.2,20.6,25.6,25.9,26.1,25.1,25,25.3,25.9,26.3,25.6,24.6,24.7,25.1,25.4,26.3,16.1,16.4,16.5,16.7,16.6,16.4,16.1,16.2,16,16,16.1,16,16.2,16
-75.73,4.82,26135040,SP,Apto Mateca,Pereira,Risaralda,1342,21.8,22,21.9,21.5,21.4,21.5,21.7,22,21.5,20.9,20.9,21.4,21.5,26.8,27.1,26.9,26.2,25.9,26,26.5,26.9,26.4,25.8,25.6,26,26.3,27.1,17.4,17.5,17.6,17.6,17.6,17.4,17.2,17.2,17.1,17,17.2,17.4,17.4,17
-75.88,4.88,26135100,CO,Bohemia La,Pereira,Risaralda,970,24.1,24.3,24.2,23.9,23.8,23.9,24.1,24.4,23.9,23.4,23.4,23.7,23.9,30.6,31,30.6,29.9,29.6,29.7,30.3,30.7,30.5,29.5,29.2,29.6,30.1,31,19.1,19.3,19.3,19.5,19.5,19.1,18.8,18.7,18.8,18.9,19.1,19.1,19.1,18.7
-75.53,4.78,26135070,CO,Cedral El,Pereira,Risaralda,2120,15.3,15.1,15.3,15.3,15.4,15.4,15.3,15.5,15.1,14.6,14.8,15,15.2,19.6,19.6,19.7,19.6,19.4,19.9,19.9,20,19.7,18.8,19,19.4,19.5,20,11.2,11.2,11.3,11.7,11.9,11.7,11.5,11.5,11.5,11.4,11.4,11.3,11.5,11.2
-75.63,4.87,26135110,CO,Veracruz,Pereira,Risaralda,1720,18.9,19.1,19.1,18.8,18.7,18.7,19,18.9,18.7,18.3,18.4,18.6,18.8,24.2,24.3,24.1,23.7,23.6,23.6,24,24,23.7,23.3,23.2,23.6,23.8,24.3,14.5,14.7,14.9,14.8,14.8,14.7,14.5,14.5,14.4,14.3,14.5,14.4,14.6,14.3
-76.03,5.23,54015010,CO,Pueblo Rico,Pueblo Rico,Risaralda,1530,18.3,18.3,18.5,18.7,18.8,18.7,18.6,18.5,18.5,18.3,18.1,18.2,18.4,22,22.1,22.4,22.5,22.7,22.5,22.4,22.5,22.3,22,21.9,21.9,22.3,22.7,16,16.1,16.2,16.6,16.5,16.2,15.9,15.8,15.8,15.7,15.8,15.9,16,15.7
-75.63,4.92,26135060,CO,Jazmin El,Santa Rosa de Cabal,Risaralda,1600,19.8,20,20.2,19.6,19.4,19.7,20,20.1,19.4,18.7,18.8,19.4,19.6,25.2,25.2,25.5,24.5,24.3,24.9,25.3,25.3,24.7,23.7,23.9,24.6,24.7,25.5,15.5,15.6,15.9,15.6,15.5,15.6,15.4,15.6,15.1,14.9,15.1,15.3,15.4,14.9
-75.58,4.84,26135160,CO,San Remo,Santa Rosa de Cabal,Risaralda,2000,17,17.2,17.2,17.2,17.3,17.2,17.3,17.4,17,16.8,16.8,16.9,17.1,21.8,22,21.9,21.6,21.5,21.6,21.9,22.3,21.5,21.2,20.9,21.3,21.6,22.3,13.3,13.5,13.7,14,14.1,14,13.9,13.8,13.7,13.6,13.6,13.4,13.7,13.3
-75.97,5.08,26145030,CO,Camelia La,Santuario,Risaralda,1650,19.1,19.4,19.4,19.3,19.2,19.3,19.6,19.7,19.2,18.7,18.7,18.9,19.2,23.8,24.1,24,23.4,23.4,23.5,23.9,24.3,23.9,23.1,22.9,23.2,23.6,24.3,16.1,16.2,16.3,16.3,16.4,16.3,16.2,16.3,16.1,15.9,15.9,16.1,16.2,15.9
-81.35,13.35,17025020,SP,Apto El Embrujo,Providencia,San Andres Providencia y Sta C,1,26.8,26.8,27,27.7,28.1,28.4,28.3,28.4,28.1,27.6,27.4,27.1,27.6,29.2,29.3,29.8,30.5,30.7,30.7,30.6,30.9,31.1,30.6,30,29.6,30.3,31.1,24.9,24.8,25.1,25.9,26.3,26.5,26.3,26.3,25.7,25.2,25.3,25.1,25.6,24.8
-73.91,5.76,23125060,CO,Albania,Albania,Santander,1690,18.5,18.5,18.7,18.8,18.8,18.8,18.7,18.9,18.7,18.5,18.6,18.4,18.7,22.9,23,22.9,22.8,23,23,23.1,23.4,23.3,22.8,22.8,22.8,23,23.4,14.3,14.6,14.9,15.3,15.3,14.8,14.5,14.6,14.6,14.8,14.9,14.7,14.8,14.3
-73.81,7.03,23155030,SP,Apto Yariguies,Barrancabermeja,Santander,126,28.4,28.7,28.4,27.9,27.7,27.8,28,27.9,27.5,27,27.1,27.7,27.9,32.8,33.1,32.6,32,31.8,32,32.4,32.4,31.7,31.1,31.2,31.7,32.1,33.1,23.6,23.8,23.8,23.7,23.5,23.4,23.2,23.1,22.9,23,23.3,23.5,23.4,22.9
-73.77,6.86,23155040,CO,Centro El,Barrancabermeja,Santander,162,27.7,27.9,27.8,27.5,27.5,27.5,27.6,27.6,27.4,27.1,27.1,27.4,27.5,33.7,33.7,33.1,32.8,32.8,32.8,33.3,33.2,32.9,32.3,32.3,32.8,32.9,33.7,22.7,22.9,23.1,23,22.8,22.7,22.4,22.5,22.3,22.4,22.8,23.1,22.7,22.3
-73.12,7.14,23195040,CP,Univ Ind Santander,Bucaramanga,Santander,1018,23.1,23.3,23.4,23.3,23.2,23.2,23.1,23.2,23,22.6,22.6,22.8,23.1,28,28.1,28.3,28.2,28.5,28.3,28.4,28.7,28.6,28.1,27.6,27.7,28.2,28.7,19,19.3,19.4,19.7,19.6,19.6,19.2,19.4,19.2,19.1,19.3,19.2,19.3,19
-72.69,6.52,24035260,CO,Capitanejo,Capitanejo,Santander,1160,,,,,,,,,,,,,,34.1,34.4,34.2,33.4,32.6,32.6,33.1,33.4,32.9,32,32.2,33.3,33.2,34.4,17.8,18.1,18.7,18.9,18.4,17.8,17.4,17.6,17.7,17.9,18.2,17.9,18,17.4
-72.71,6.84,24035270,CO,Tiga Gja,Cerrito,Santander,2698,13.8,14,13.9,13.8,13.7,13.5,13.2,13.2,13.2,13.2,13.5,13.7,13.6,20,20.2,20.1,19.5,19,18.5,18.2,18.3,18.5,18.4,18.6,19.4,19,20.2,7.6,8.2,8.3,9,9,9,8.5,8.4,8.2,8.3,8.3,7.9,8.4,7.6
-73.15,6.27,24025050,CO,Charala,Charala,Santander,1350,21.6,21.7,21.5,21.4,21.4,21.3,21.1,21.2,21.1,21.2,21.3,21.4,21.3,28.8,29.1,29,28.4,28.2,28,28,28.2,28.2,28,27.9,28.3,28.3,29.1,15.4,15.7,16,16.4,16.7,16.3,15.9,15.8,15.7,16.1,16.5,16.1,16,15.4
-73.37,6.36,24015260,CO,Chima,Chima,Santander,1090,23.7,23.8,23.8,23.7,23.6,23.6,23.4,23.4,23.5,23.4,23.5,23.6,23.6,30.8,31.1,31,30.6,30.2,30,30,30.2,30.1,29.7,29.7,30,30.3,31.1,17.5,17.6,17.7,18,18,17.8,17.4,17.3,17.5,17.7,18,17.9,17.7,17.3
-73.95,6.31,23125120,CO,Cimitarra,Cimitarra,Santander,300,27.2,27.2,27.2,27,27.1,27.1,27.3,27.3,27.1,26.9,26.9,27,27.1,31.9,32.1,31.8,31.8,31.6,31.7,32,32.1,31.8,31.4,31.4,31.5,31.7,32.1,22.2,22.2,22.3,22.2,22.1,22.1,21.8,21.9,21.9,21.8,22,22.2,22.1,21.8
-73.51,6.7,23145020,CO,Carmen El,El Carmen de Chucuri,Santander,815,24.2,24.4,24.3,24.1,24.2,24.3,24.3,24.3,24,23.7,23.6,23.8,24.1,27.6,27.9,27.7,27.6,27.8,27.8,28.1,28,27.7,27.3,27,27.1,27.6,28.1,20.4,20.4,20.4,20.4,20.3,20.3,20,20,19.9,19.8,20,20.1,20.2,19.8
-73.34,5.94,24015280,CO,Gambita,Gambita,Santander,1900,18,18,18.2,18.2,18.2,18.2,18,18,18,17.9,18,17.9,18.1,23.4,23.4,23.4,23.2,23.1,23.1,23.2,23.3,23.3,23,23,22.9,23.2,23.4,12.4,12.5,12.8,13.1,13.1,12.8,12.2,12.2,12.4,12.7,13,12.6,12.7,12.2
-73.17,7.03,23195110,CO,Llano Grande,Giron,Santander,777,25.2,25.4,25.5,25.3,25.3,25.2,25.2,25.3,25.2,25.1,25,25.1,25.2,30.9,30.7,30.7,30.4,30.8,30.9,31,31.2,31.2,30.4,30.4,30.5,30.8,31.2,19.1,19.5,19.9,20,20.1,19.6,19.2,19.4,19.4,19.6,19.6,19.2,19.5,19.1
-73.42,6.24,24015250,CO,Laja La,Guadalupe,Santander,1400,21.4,21.5,21.6,21.5,21.4,21.3,21.2,21.2,21.1,21.1,21.1,21.4,21.3,26.3,26.7,27,26.5,26.4,26.3,26.3,26.5,26.4,26,25.9,26,26.3,27,15.6,15.3,15.6,16,15.9,15.6,15.2,15.1,15.2,15.3,15.6,15.8,15.5,15.1
-73.81,6.22,23125130,CO,Landazuri,Landazuri,Santander,1085,22.8,22.8,22.8,22.9,23,23,23,23.1,22.8,22.5,22.5,22.6,22.8,26.8,27,26.8,26.8,26.9,26.9,27,27.1,26.7,26.4,26.1,26.4,26.7,27.1,17.9,17.7,17.6,17.6,17.7,17.6,17.4,17.5,17.1,17,17,17.5,17.4,17
-73.18,7.12,23195130,SP,Apto Palonegro,Lebrija,Santander,1189,21.3,21.7,21.7,21.6,21.6,21.5,21.5,21.6,21.4,21,20.9,21,21.4,25.3,25.5,25.4,25.3,25.6,25.6,25.8,26,26,25.4,24.9,25,25.5,26,18.5,18.8,19,19,18.9,18.8,18.5,18.5,18.3,18.3,18.4,18.4,18.6,18.3
-72.97,6.47,24025040,CP,Esc Agr Mogotes,Mogotes,Santander,1667,18.8,19.1,19.3,19.2,19.1,18.9,18.6,18.6,18.6,18.6,18.8,18.6,18.8,25.8,26.3,26.3,25.7,25.4,25.3,25.2,25.3,25.2,24.9,24.8,25.1,25.4,26.3,11.8,12.2,13,13.9,14.2,13.6,12.9,13,13.2,13.7,13.9,12.8,13.2,11.8
-73.29,6.55,24055040,CO,Palmar El,Palmar,Santander,940,26.4,26.5,26.5,26.1,25.7,25.7,25.7,25.8,25.6,25.2,25.4,25.8,25.9,32.4,32.9,32.6,31.9,31.1,31,31.6,32.1,31.5,30.5,30.2,31.1,31.6,32.9,19.7,19.9,20.5,20.4,20.4,20.1,19.6,19.7,19.6,19.7,20,19.9,20,19.6
-73.2,6.53,24025020,CP,Cucharo El,Pinchote,Santander,975,25.5,25.9,25.8,25.1,24.5,24.3,24.3,24.5,24.3,24,24,24.5,24.7,32.6,33,32.7,31.5,30.5,30.4,31,31.3,30.9,30.1,30.1,31.3,31.3,33,18.5,19.2,19.5,19.5,19.4,18.9,18.4,18.5,18.5,18.8,18.9,18.5,18.9,18.4
-73.92,6.62,23125040,CO,Campo Capote,Puerto Parra,Santander,180,26.8,26.9,26.8,26.8,26.9,27,27,27,26.7,26.4,26.5,26.6,26.8,32.9,33.2,32.7,32.5,32.5,32.7,33.1,32.9,32.3,31.7,31.9,32.2,32.5,33.2,22.5,22.8,22.9,23,22.9,22.8,22.5,22.6,22.5,22.4,22.6,22.8,22.7,22.4
-74.06,6.65,23125050,CO,Carare,Puerto Parra,Santander,168,28.3,28.7,28.5,28.2,28.1,28.2,28.4,28.3,28.1,27.8,27.9,28.2,28.2,33,33.2,32.8,32.4,32.3,32.3,32.9,32.8,32.1,31.6,31.8,32.2,32.4,33.2,22.8,23.2,23.2,23.2,23.1,23.1,22.8,22.8,22.6,22.7,23.1,23.2,23,22.6
-73.79,7.25,24065010,CO,Brisas Las Hda,Puerto Wilches,Santander,138,29,29.4,29,28.8,28.7,28.8,28.8,28.9,28.5,28.3,28.3,28.5,28.7,34.5,35.1,34.4,33.9,33.7,33.8,34.2,34.2,33.5,33.1,33,33.5,33.9,35.1,20.6,20.9,21.1,21.1,21,21.2,21.1,21,20.8,20.8,20.9,20.8,21,20.6
-73.54,7.46,23185010,CP,Villa Leiva,Saba de Torres,Santander,328,27.7,28.4,28.3,27.8,27.7,27.7,27.8,27.7,27.4,27,27,27.2,27.6,34.1,34.8,34.6,33.7,33.2,33.3,33.6,33.6,33,32.6,32.4,33.1,33.5,34.8,22.5,22.8,23.2,23.4,23.3,23.3,23,22.9,22.8,22.9,23.1,22.9,23,22.5
-72.99,7.47,23195200,CO,Cachiri,Surata,Santander,1850,17.5,18,18,17.8,17.9,18,17.8,17.8,17.4,17.2,17.3,17.4,17.7,22.7,23.1,23.2,22.8,22.6,22.8,22.9,23,22.4,21.9,21.9,22.2,22.6,23.2,12.4,13,13.3,13.6,13.9,13.8,13.3,13.5,13.3,13.2,13,12.7,13.2,12.4
-72.99,7.37,23195090,CO,Vivero Surata,Surata,Santander,1725,18.6,18.7,18.7,18.5,18.5,18.5,18.6,18.7,18.5,18.2,18.3,18.4,18.5,24.7,25.3,25,24.3,23.7,23.6,24.1,24.2,24.3,23.7,23.4,23.7,24.2,25.3,13.1,13.3,13.8,14.3,14.6,14.4,14.1,14.2,14.1,14.1,14.1,13.5,14,13.1
-72.87,7.19,37015020,CP,Berlin Automatica,To,Santander,3214,8.5,8.7,9,9.3,9.2,8.8,8.4,8.7,8.9,9,9,8.7,8.8,14.5,14.7,14.9,14.3,13.8,12.9,12.3,12.8,13.5,13.5,13.5,13.9,13.7,14.9,1.7,2.6,3.7,5.4,5.9,5.8,5.4,5.4,5.2,5.2,4.6,3.1,4.5,1.7
-73.67,6,24015270,CO,Velez Granja,Velez,Santander,2170,16.7,16.7,16.7,16.7,16.7,16.7,16.6,16.6,16.6,16.4,16.4,16.7,16.6,23.4,23.5,23.3,23.1,22.9,22.9,22.7,22.7,22.9,22.6,22.6,22.9,22.9,23.5,11.9,12,12.2,12.4,12.5,12.3,12,12,12,12,12.1,12,12.1,11.9
-73.28,6.79,24055030,CO,Zapatoca,Zapatoca,Santander,1810,18.6,18.8,18.9,19,19,18.9,18.8,18.9,18.8,18.4,18.4,18.4,18.7,23.5,23.9,23.8,23.6,23.5,23.4,23.4,23.7,23.5,22.8,22.6,22.8,23.4,23.9,13.9,14.1,14.4,14.7,14.8,14.5,14.1,14.1,14.1,14.2,14.3,14,14.3,13.9
-75.35,9.53,13095020,CP,Primates,Coloso,Sucre,200,27,27.4,27.4,27.3,27,27,27,26.9,26.6,26.4,26.4,26.6,26.9,33.4,33.7,33.7,33.2,32.1,32.1,32.4,32.3,31.5,30.9,31.1,32.2,32.4,33.7,20.8,21,21.6,22.1,22.1,22,22.1,21.8,21.9,22,21.6,21.4,21.7,20.8
-75.28,9.33,25025080,SS,Apto Rafael Barvo,Corozal,Sucre,166,27.8,28,28.3,28.2,27.7,27.5,27.6,27.6,27,26.8,27,27.4,27.5,33.7,34.1,34.3,33.5,32.1,31.4,32.2,32.2,31.4,31.1,31.5,32.6,32.5,34.3,22,22.6,23.2,23.6,23.2,22.9,22.7,22.6,22.5,22.6,22.5,22.1,22.7,22
-74.64,8.55,25025240,CP,Majagual,Majagual,Sucre,20,29.1,29.1,29.5,29.3,29.1,29.2,29.1,29,28.9,28.6,28.9,28.9,29.1,33.9,34.2,34.4,34.2,33.7,33.7,33.8,33.6,33.3,32.8,33.2,33.6,33.7,34.4,21.8,21.7,22.2,21.9,21.8,21.9,21.7,21.7,21.5,21.7,22,21.9,21.8,21.5
-75.4,9.21,25025270,AM,Univ de Sucre,Sampues,Sucre,160,26.8,27.1,27.2,27.4,27,27.1,27.1,26.9,26.5,26.3,26.4,26.7,26.9,33.3,33.9,33.8,33.1,31.8,31.7,31.9,31.9,31.3,30.9,31.1,32,32.2,33.9,22.3,22.4,22.9,23.2,23.3,23.1,22.8,22.5,22.8,22.8,22.8,22.5,22.7,22.3
-75.04,8.94,25025180,CO,San Benito Abad,San Benito Abad,Sucre,20,28,28.4,28.7,28.6,28.3,28.2,28.2,28.1,27.9,27.8,27.9,27.9,28.2,32.5,33.3,33.8,33.7,32.6,32.5,32.2,32,31.9,31.5,31.6,32.1,32.4,33.8,22.8,23,23.4,23.7,23.6,23.4,23.3,23,23.1,23.3,23.4,23.2,23.3,22.8
