CODIGO,CAT,NOMBRE,MUNICIPIO,DEPARTAMENTO,ELEV,LON,LAT,ENE,FEB,MAR,ABR,MAY,JUN,JUL,AGO,SEP,OCT,NOV,DIC,ANUAL
48015010,SP,A.Vasquez Cobo,Leticia,Amazonas,84,-69.94,-4.19,87.9,88.1,87.5,87.9,87.9,87.7,85.6,84.7,84.8,85.6,86.7,88.2,86.9
23085030,CO,Alejandria,Alejandria,Antioquia,1660,-75.14,6.38,88.4,88.3,88.5,88.4,88.6,88.3,87.1,87.2,88.1,88.2,88.8,88.7,88.3
26195020,CO,Ita Andes,Andes,Antioquia,1180,-75.88,5.69,79.3,78.8,79.5,80.5,82.5,82.3,81.0,81.3,82.1,81.4,82.3,82.3,81.1
27025030,CO,Anori,Anori,Antioquia,1610,-75.15,7.07,89.8,89.9,90.2,90.1,89.0,86.4,84.0,84.7,87.0,89.0,90.5,90.8,88.4
12015020,AM,Uniban,Apartado,Antioquia,23,-76.65,7.83,85.7,84.1,83.8,85.5,87.7,88.0,87.6,87.6,87.2,86.8,87.2,87.5,86.6
12045010,CP,Arboletes,Arboletes,Antioquia,4,-76.42,8.85,81.0,79.5,79.0,81.9,84.7,84.5,83.9,84.1,84.3,83.3,83.3,82.5,82.8
27015150,CO,Progreso El Hda,Barbosa,Antioquia,1500,-75.40,6.41,81.8,81.0,81.1,83.2,83.8,82.5,80.8,80.9,81.7,82.7,83.3,82.7,82.2
27015090,CO,Tulio Ospina,Bello,Antioquia,1438,-75.55,6.32,76.9,74.4,75.0,77.7,78.4,76.3,73.7,73.3,76.7,79.6,80.2,79.3,76.8
26225040,CO,Piunti Hda,Buritica,Antioquia,1650,-75.91,6.73,79.3,78.9,78.8,81.6,82.8,82.0,80.4,80.8,81.7,83.6,83.8,82.7,81.3
27015260,AM,Salada La,Caldas,Antioquia,1680,-75.62,6.05,84.1,82.7,84.3,85.9,86.8,85.1,83.5,81.9,84.1,85.3,86.3,86.3,84.5
11115020,CO,Canasgordas,Canasgordas,Antioquia,1200,-76.03,6.76,85.3,84.4,84.0,85.7,86.2,85.9,85.1,85.0,85.4,86.4,87.3,86.0,85.6
12015070,SP,Apto Los Cedros,Carepa,Antioquia,19,-76.72,7.82,82.2,81.7,81.5,83.0,84.1,83.6,83.2,83.1,83.0,83.1,83.5,83.3,82.9
12015060,CO,Tulenapa,Carepa,Antioquia,30,-76.66,7.77,85.4,84.5,84.3,86.1,88.2,88.5,88.2,88.3,87.5,87.1,87.8,88.1,87.0
26255040,CP,Cacaoteras del Diq,Caucasia,Antioquia,55,-75.12,7.98,78.9,76.9,76.6,79.2,82.1,82.4,81.9,82.0,82.9,83.4,82.7,81.7,81.0
27045020,CO,Caseri,Caucasia,Antioquia,400,-74.93,7.81,79.9,78.6,78.4,80.5,81.9,82.1,81.1,81.9,81.5,81.8,83.2,82.2,81.3
12015090,CO,Palmera La,Chigorodo,Antioquia,58,-76.61,7.54,81.4,77.5,78.5,81.7,82.6,83.1,82.9,83.9,83.8,84.3,82.9,84.4,82.3
11025010,CO,Mansa La,Ciudad Bolivar,Antioquia,2100,-76.08,5.88,87.4,87.4,87.5,88.6,88.6,87.8,86.6,86.4,87.8,88.4,89.0,88.8,87.9
26215010,CO,Concordia,Concordia,Antioquia,1904,-75.92,6.04,81.0,79.6,79.5,82.5,83.4,81.7,78.9,79.2,81.6,83.5,85.3,84.3,81.8
26175040,CO,Tunez Hda,Fredonia,Antioquia,530,-75.65,5.80,74.8,72.0,72.8,76.9,79.9,79.3,77.0,75.7,78.7,81.2,81.1,79.9,77.5
11115040,CO,Musinga,Frontino,Antioquia,1330,-76.19,6.79,86.2,85.9,85.7,87.3,88.0,87.9,87.5,87.5,87.8,87.2,87.7,87.2,87.3
26195030,CO,Jardin El,Jardin,Antioquia,2005,-75.80,5.59,83.9,83.6,84.3,86.3,87.1,86.1,83.7,83.5,85.5,86.1,87.6,86.1,85.3
26195010,CO,Miguel Valencia,Jardin,Antioquia,1570,-75.85,5.53,78.1,76.7,76.9,79.3,81.1,79.0,77.6,77.9,80.2,81.2,80.3,79.2,79.0
26185020,CO,Mesopotamia,La Union,Antioquia,2314,-75.32,5.89,87.3,87.1,87.4,87.7,87.2,85.0,83.7,83.4,85.5,87.1,87.7,87.8,86.5
27015070,SP,A.Olaya Herrera,Medellin,Antioquia,1490,-75.59,6.22,66.0,65.2,67.1,70.1,69.8,66.2,62.6,62.8,67.3,71.1,71.7,69.9,67.5
12015010,CO,Villarteaga,Mutata,Antioquia,132,-76.48,7.35,86.6,86.8,85.8,87.6,87.9,87.9,87.9,88.0,88.0,89.3,89.0,87.9,87.7
12025030,CO,Mellito El,Necocli,Antioquia,10,-76.67,8.54,86.0,84.5,83.9,85.1,87.0,86.9,86.7,87.3,87.0,86.7,87.1,87.4,86.3
23085110,CO,Penol El,Penol,Antioquia,1956,-75.24,6.21,86.4,86.0,86.4,86.8,85.8,82.6,81.7,82.8,84.7,86.5,87.2,87.3,85.5
23095010,CP,Apto Pto Berrio,Puerto Berrio,Antioquia,150,-74.41,6.47,76.6,76.2,78.2,80.6,80.6,80.0,79.0,78.7,80.2,81.0,81.3,79.8,79.4
23175020,SS,Apto Otu,Remedios,Antioquia,718,-74.72,7.01,85.4,84.5,85.7,86.5,84.8,85.3,83.8,84.3,85.8,85.7,86.2,86.4,85.4
23085200,SP,A.J M Cordova,Rionegro,Antioquia,2073,-75.43,6.17,80.2,79.7,80.4,81.5,80.7,78.1,75.7,75.8,78.3,82.1,83.2,82.1,79.8
23085040,AM,Selva La,Rionegro,Antioquia,2090,-75.41,6.13,79.7,79.6,80.3,80.6,80.5,79.3,78.0,78.1,78.7,80.9,81.4,80.7,79.9
23085220,CP,San Carlos,San Carlos,Antioquia,1113,-75.04,6.16,85.9,84.7,85.3,86.5,85.2,82.2,80.4,80.0,83.7,86.1,87.8,87.6,84.6
23085140,CO,San Francisco,San Francisco,Antioquia,1306,-75.10,5.96,89.0,88.7,89.1,89.2,89.4,88.8,88.0,88.2,89.5,89.8,90.1,90.2,89.3
23085210,CP,Violetas Las,San Rafael,Antioquia,1016,-75.00,6.35,85.6,85.2,85.8,86.4,85.7,85.1,83.9,83.5,84.7,86.7,87.8,87.0,85.6
23085080,CP,Nus Gja Exp El,San Roque,Antioquia,835,-74.84,6.49,82.0,80.1,81.3,83.7,84.5,83.1,80.7,80.5,83.0,84.9,85.9,84.9,82.9
23085160,CO,Corrientes,San Vicente,Antioquia,1950,-75.25,6.31,83.5,83.3,84.6,85.6,83.7,82.4,80.5,80.0,82.0,84.1,85.4,84.6,83.2
27015110,CO,Aragon,Santa Rosa de Osos,Antioquia,2600,-75.83,6.53,86.3,86.9,86.6,87.0,87.4,86.3,85.4,85.2,85.8,87.0,87.6,86.8,86.5
26225030,AM,Cotove Hda,Santafe de Antioquia,Antioquia,530,-75.83,6.53,67.5,66.0,68.4,73.7,78.4,78.8,77.1,75.1,77.5,80.0,79.3,75.0,75.2
27015190,CO,Guayabito,Santo Domingo,Antioquia,1700,-75.15,6.54,83.7,82.6,82.8,85.2,85.9,83.9,81.8,82.0,84.6,86.0,86.2,85.8,84.2
23075010,CP,Rio Claro,Sonson,Antioquia,449,-74.85,5.86,80.7,80.2,80.6,81.9,81.2,80.2,74.9,75.4,78.9,82.3,84.2,83.2,80.5
26175030,CP,Nacional Gja La,Tamesis,Antioquia,1151,-75.69,5.72,81.4,79.1,79.9,83.1,85.7,85.3,82.4,80.5,83.4,85.9,86.0,85.0,83.2
26235030,CO,Matanzas,Toledo,Antioquia,500,-75.67,7.04,70.7,66.9,69.5,75.6,81.1,82.5,81.7,82.1,83.5,83.2,82.1,78.1,78.3
12025040,CO,Turbo,Turbo,Antioquia,37,-76.72,8.09,85.8,85.3,85.4,86.1,87.5,87.1,86.3,87.2,86.4,86.8,87.2,87.5,86.7
11075010,CO,Honda La,Urrao,Antioquia,1850,-76.16,6.36,91.4,91.1,90.6,90.6,90.5,90.7,90.5,90.9,91.5,91.6,91.0,92.0,91.0
11075020,CO,Urrao,Urrao,Antioquia,1850,-76.14,6.32,87.7,87.6,87.6,88.3,88.0,87.9,87.5,87.3,88.6,89.2,89.2,88.8,88.2
26255020,CP,Sta Isabel,Valdivia,Antioquia,1200,-75.44,7.16,89.3,88.7,89.3,89.9,89.8,90.2,88.9,88.9,88.7,90.2,90.7,90.4,89.6
23105030,CO,Vegachi,Vegachi,Antioquia,995,-74.80,6.77,86.9,85.9,86.6,88.4,88.3,87.1,85.6,85.9,87.5,88.8,89.7,88.9,87.5
26205020,CP,Rosario El,Venecia,Antioquia,1600,-75.72,5.93,71.8,70.0,69.1,75.7,78.4,73.8,68.9,70.0,74.5,79.5,79.7,75.7,73.9
37055010,SP,Apto Arauca,Arauca,Arauca,128,-70.74,7.07,70.6,66.1,65.9,75.8,84.4,86.7,86.7,85.6,84.6,84.6,83.6,78.6,79.5
37045010,CO,Saravena,Saravena,Arauca,148,-71.89,6.95,78.5,79.2,78.9,82.7,85.4,86.7,86.4,85.9,84.8,84.2,83.4,83.0,83.7
36025010,CO,Tame,Tame,Arauca,350,-71.75,6.46,79.9,80.7,80.2,83.3,84.3,84.9,85.5,85.7,85.5,84.9,84.2,83.2,83.5
29045120,CP,Flores Las,Barranquilla,Atlantico,2,-74.82,11.04,82.0,81.8,81.8,82.6,83.1,82.9,82.7,83.1,82.6,83.3,82.6,82.4,82.6
29045110,CO,Juan de Acosta,Juan de Acosta,Atlantico,20,-75.05,10.85,79.7,78.7,79.3,78.5,82.0,83.0,81.9,82.9,85.4,85.9,84.7,81.3,82.0
29035080,CP,Normal Manati,Manati,Atlantico,10,-74.95,10.45,80.8,79.7,78.8,80.0,82.4,82.2,82.4,82.3,83.2,83.7,83.7,82.3,81.8
29035070,CP,Repelon,Repelon,Atlantico,10,-75.12,10.50,71.9,69.8,69.5,72.3,78.2,77.8,76.7,78.5,80.7,82.0,80.7,75.2,75.9
29045020,SP,A.E Cortissoz,Soledad,Atlantico,14,-74.78,10.88,78.6,77.6,77.5,78.9,81.1,81.7,81.0,81.6,83.6,85.6,83.9,80.8,80.9
21205790,SP,Apto El Dorado,Bogota DC,Bogota DC,2547,-74.15,4.71,78.7,79.0,81.0,82.1,81.9,79.0,77.5,77.2,78.8,82.5,83.4,81.0,80.2
21206260,CO,C.Univ.Agrop-Udca,Bogota DC,Bogota DC,2570,-74.05,4.80,89.1,89.8,90.7,91.1,91.6,91.1,90.4,89.8,89.9,90.7,90.9,88.8,90.3
21205520,CP,Eldorado Didactica,Bogota DC,Bogota DC,2546,-74.15,4.70,77.4,78.0,79.3,81.0,80.3,76.2,75.4,76.7,77.8,81.2,81.9,79.6,78.7
21206050,CP,Esc Col Ingenieria,Bogota DC,Bogota DC,2650,-74.05,4.79,78.1,77.5,79.6,81.1,81.1,80.8,80.0,79.9,79.4,80.8,81.4,80.2,79.9
21205710,CO,Jardin Botanico,Bogota DC,Bogota DC,2552,-74.10,4.67,82.7,84.0,85.3,85.4,84.6,83.1,82.0,82.0,82.7,85.5,85.4,85.8,84.0
35025070,CO,Taques Los,Bogota DC,Bogota DC,3150,-74.19,4.20,93.3,92.6,93.0,94.5,94.6,95.4,95.5,95.4,94.6,93.7,93.4,93.3,94.2
21206220,CP,Univ Nacional,Bogota DC,Bogota DC,2556,-74.09,4.64,76.1,77.7,79.1,79.3,78.2,76.4,75.4,75.2,76.5,77.1,79.8,78.2,77.6
21206230,CO,Vegas Las Hda,Bogota DC,Bogota DC,2543,-74.15,4.66,85.2,84.9,85.2,85.3,85.1,85.5,85.5,85.1,85.4,85.4,85.6,85.2,85.2
21205580,CO,Venado Oro Vivero,Bogota DC,Bogota DC,2725,-74.06,4.60,79.9,80.1,81.0,81.6,82.6,82.2,82.0,81.0,80.0,81.8,83.2,81.0,81.3
29035170,CP,Sincerin,Arjona,Bolivar,10,-75.28,10.14,80.7,79.6,81.1,81.7,84.4,84.1,83.9,83.9,84.9,86.7,85.3,83.7,83.3
14015020,SP,Apto Rafael Nunez,Cartagena,Bolivar,2,-75.52,10.45,80.9,79.5,79.5,81.0,82.1,81.6,81.2,81.7,81.7,82.6,82.9,82.1,81.4
14015030,CP,Esc Naval Cioh,Cartagena,Bolivar,1,-75.54,10.39,82.5,81.0,82.2,83.4,84.9,84.5,84.3,85.0,84.8,85.7,85.8,84.7,84.0
29015020,AM,Carmen de Bolivar,El Carmen de Bolivar,Bolivar,152,-75.11,9.72,73.0,71.0,71.8,73.5,76.8,76.4,75.2,76.1,79.3,80.0,79.3,76.4,75.6
29015030,CO,Guamo El,El Guamo,Bolivar,75,-74.97,10.04,71.1,68.8,69.5,74.3,79.3,79.7,77.7,78.8,80.9,83.5,82.4,77.1,76.9
25025100,CP,Apto Baracoa,Magangue,Bolivar,18,-74.85,9.28,75.5,73.8,73.7,75.5,80.3,81.2,79.9,80.5,82.7,83.6,83.7,80.0,79.2
29035040,CP,Nueva Florida,Maria La Baja,Bolivar,13,-75.35,9.94,82.6,81.9,80.4,82.6,84.9,85.5,85.1,85.4,86.5,86.8,86.3,85.0,84.3
29035030,CO,Presa Ay Grande,Maria La Baja,Bolivar,60,-75.33,9.88,79.6,77.9,76.8,78.8,82.1,82.9,82.3,82.7,83.3,84.1,84.2,80.4,81.2
29035110,CO,San Pablo,Maria La Baja,Bolivar,20,-75.26,10.04,78.5,75.2,75.3,78.1,82.6,82.3,81.3,83.0,84.3,85.2,85.3,82.4,81.0
25025230,CO,Montecristo,Montecristo,Bolivar,100,-74.48,8.30,83.9,83.3,82.8,84.3,85.5,85.2,84.8,85.3,86.1,86.1,86.2,85.3,84.9
25025210,CO,Pinillos,Pinillos,Bolivar,10,-74.47,8.92,76.6,76.3,75.7,76.2,77.1,77.0,77.2,77.1,76.8,77.7,78.3,77.5,76.9
25025220,CO,Norosi,Rio Viejo,Bolivar,160,-74.05,8.53,74.5,72.8,72.7,76.3,80.3,79.9,78.4,79.1,81.2,81.5,80.5,78.3,78.0
23205020,CO,Col Cooperativo,San Pablo,Bolivar,165,-73.93,7.48,73.4,72.5,73.0,75.7,76.2,75.5,74.9,75.3,76.4,77.4,77.2,75.3,75.3
14015010,CP,Galerazamba,Santa Catalina,Bolivar,20,-75.26,10.79,84.0,83.0,81.9,83.6,84.1,84.5,84.6,84.9,85.3,86.0,85.7,84.9,84.4
23205050,CO,Canelos,Santa Rosa del Sur,Bolivar,750,-74.24,7.89,84.9,83.9,85.7,87.8,88.3,87.3,86.0,86.0,87.4,88.1,88.2,87.5,86.8
23205030,CO,Sta Rosa D Simiti,Santa Rosa del Sur,Bolivar,650,-74.06,7.97,73.5,71.3,74.5,81.5,85.3,84.3,82.8,83.6,85.0,86.5,84.5,78.8,81.2
25025020,CP,Monterrey Forestal,Zambrano,Bolivar,25,-74.84,9.74,73.1,72.5,73.9,76.2,79.5,80.1,78.2,79.4,80.8,82.3,81.5,78.7,78.0
24035020,CO,Beteitiva,Beteitiva,Boyaca,2575,-72.81,5.91,77.3,76.4,80.5,81.4,81.0,81.4,81.4,80.9,79.6,80.5,81.9,79.5,80.2
24035330,AM,Boavita,Boavita,Boyaca,2150,-72.58,6.33,71.1,71.3,72.8,78.6,81.1,79.0,76.8,75.1,76.5,79.5,80.0,76.7,76.6
23125100,CP,Buenavista,Buenavista,Boyaca,2200,-73.94,5.51,88.3,88.1,88.9,89.6,89.4,89.1,88.3,87.5,87.4,88.6,89.0,89.6,88.8
35085050,CO,Campohermoso,Campohermoso,Boyaca,1300,-73.10,5.03,83.6,83.0,85.0,87.0,88.0,89.0,89.7,88.3,87.0,85.7,86.0,85.4,86.5
24035310,CO,Chiscas,Chiscas,Boyaca,2350,-72.50,6.55,64.2,65.1,67.1,71.7,75.2,74.4,74.1,72.6,72.0,73.7,72.6,67.5,70.8
24035250,CO,Chita,Chita,Boyaca,2888,-72.47,6.19,72.4,71.3,72.9,77.0,78.9,78.9,79.6,79.4,78.1,79.1,80.8,77.2,77.1
37035010,CO,Tunebia,Cubara,Boyaca,370,-72.12,7.01,82.4,82.3,82.3,85.2,85.6,87.2,87.5,87.2,85.5,84.1,84.4,84.1,84.8
35095030,CO,Tunel El,Cuitiva,Boyaca,3000,-72.94,5.57,80.1,80.8,82.5,84.8,84.8,84.7,85.0,85.4,84.5,85.0,85.0,82.0,83.7
24025030,CP,Sierra La,Duitama,Boyaca,2700,-73.16,5.97,83.9,84.6,86.1,87.7,86.8,84.3,82.2,81.6,83.4,86.8,88.4,86.7,85.2
24035120,AM,Surbata Bonza,Duitama,Boyaca,2485,-73.07,5.80,74.0,74.2,76.2,78.4,80.3,79.2,77.8,78.5,78.3,80.5,79.5,76.3,77.9
24035070,CO,Guican,Guican,Boyaca,2963,-72.41,6.46,80.8,80.1,82.0,84.9,86.9,86.6,86.4,85.2,84.8,84.8,85.5,83.2,84.3
24035240,CO,Sierra Nevad Cocuy,Guican,Boyaca,3716,-72.37,6.41,83.5,84.2,84.2,84.7,85.4,85.4,85.6,86.0,86.0,86.5,86.0,84.6,85.2
24035010,CO,Cusagui,La Uvita,Boyaca,2950,-72.55,6.25,74.5,75.1,77.2,80.5,81.1,80.3,79.5,79.2,79.5,81.5,82.7,77.6,79.1
35075040,CP,Inst Agr Macanal,Macanal,Boyaca,1300,-73.32,4.94,84.1,82.9,84.6,88.3,90.0,91.2,91.7,90.4,88.3,87.8,88.1,87.0,87.9
35085040,CO,Vivero El,Miraflores,Boyaca,1640,-73.14,5.19,83.6,81.5,84.1,86.6,89.0,91.0,91.5,91.0,88.3,87.7,88.0,86.0,87.6
24015020,CO,Bertha,Moniquira,Boyaca,1700,-73.60,5.88,74.4,73.9,74.3,77.9,79.7,77.5,75.3,74.4,76.5,78.8,78.8,76.8,76.5
24035150,CP,Belencito,Nobsa,Boyaca,2530,-72.89,5.78,71.2,70.0,73.0,75.9,77.3,76.4,75.6,75.2,75.3,76.9,77.7,74.7,75.0
35075010,AM,Nuevo Colon,Nuevo Colon,Boyaca,2438,-73.46,5.35,78.8,79.1,79.1,82.1,84.6,86.9,88.1,87.6,85.1,83.6,82.6,81.0,83.3
23125080,CO,Otanche,Otanche,Boyaca,1070,-74.18,5.66,89.1,88.8,88.8,88.9,88.6,88.0,87.1,86.5,87.6,89.2,89.5,89.7,88.4
24035170,AM,Tunguavita,Paipa,Boyaca,2470,-73.12,5.75,71.6,71.7,73.6,77.5,79.2,78.0,76.5,76.1,77.4,78.6,78.8,75.8,76.2
35195050,CO,Corinto,Pajarito,Boyaca,1550,-72.72,5.41,85.9,84.8,86.4,90.3,91.3,91.9,92.1,91.5,90.0,89.5,89.9,88.4,89.4
23115010,CO,Pto Boyaca,Puerto Boyaca,Boyaca,350,-74.57,5.98,76.3,75.5,78.2,79.9,79.3,77.7,75.1,74.3,77.9,80.8,81.5,79.4,77.9
23125140,CO,Apto Furatena,Quipama,Boyaca,1250,-74.18,5.52,84.1,84.6,85.7,86.9,86.6,85.1,82.6,82.0,84.1,85.1,86.2,85.8,84.9
35075030,CO,Villa Luisa,Ramiriqui,Boyaca,2200,-73.35,5.42,77.7,76.4,77.2,80.1,82.0,84.2,85.4,84.5,82.1,81.4,81.5,79.5,81.1
35085020,CO,Rondon,Rondon,Boyaca,2120,-73.20,5.36,83.5,83.7,84.5,86.9,88.5,90.8,90.8,89.7,87.1,86.3,86.9,85.9,87.1
24015220,CP,Villa Carmen,Samaca,Boyaca,2600,-73.50,5.51,77.2,78.1,79.1,81.1,81.3,81.4,82.3,81.8,80.6,80.2,81.2,79.9,80.3
24015090,CO,Inst Agr Sta Sofia,Santa Sofia,Boyaca,2300,-73.60,5.71,73.0,72.8,74.2,75.5,75.4,73.8,73.2,71.9,72.3,75.5,77.3,76.1,74.4
24035320,CO,Sativanorte,Sativanorte,Boyaca,2594,-72.70,6.13,64.5,65.4,67.4,70.4,70.1,67.9,66.2,66.1,66.7,69.3,70.4,67.1,67.6
35235010,CO,Cardon El,Socota,Boyaca,3590,-72.53,6.01,86.6,87.4,90.5,94.6,95.5,97.1,97.3,97.3,96.1,94.3,92.6,89.0,93.3
24035340,CP,Apto A Lleras C,Sogamoso,Boyaca,2500,-72.97,5.68,72.0,72.1,73.8,76.6,77.9,77.4,76.8,76.7,76.8,77.1,76.7,74.1,75.7
35075020,CP,Sutatenza,Sutatenza,Boyaca,1930,-73.45,5.02,76.2,75.9,76.9,78.8,80.7,82.4,82.8,81.9,79.6,78.4,78.4,77.3,79.1
24035040,CO,Copa La,Toca,Boyaca,2700,-73.21,5.58,77.9,76.9,77.7,79.9,81.2,80.8,80.7,80.7,80.2,81.0,80.2,79.7,79.7
24035130,CP,U P T C,Tunja,Boyaca,2690,-73.36,5.55,75.3,74.7,75.7,79.5,81.8,82.9,82.6,81.5,79.3,79.3,79.9,77.8,79.2
24015300,CP,Villa de Leiva,Villa de Leyva,Boyaca,2215,-73.54,5.66,74.8,74.4,76.0,77.1,77.2,74.7,73.0,71.0,72.4,77.3,79.3,77.4,75.1
26185010,CO,Pelada La,Aguadas,Caldas,2180,-75.34,5.58,79.5,79.3,81.2,83.2,84.3,82.6,77.9,77.5,81.0,83.7,85.7,83.5,81.6
26145020,CO,Bellavista,Anserma,Caldas,1932,-75.80,5.28,86.5,86.0,87.0,87.6,87.9,87.5,85.1,84.7,86.6,86.8,88.0,87.6,86.8
26155110,SP,Apto La Nubia,Manizales,Caldas,2058,-75.47,5.03,83.0,81.4,83.0,84.4,84.3,83.5,81.0,81.1,84.4,85.8,86.0,84.2,83.5
26185040,CO,San Felix,Salamina,Caldas,2696,-75.38,5.37,85.1,84.7,85.9,86.7,86.8,85.1,83.0,82.0,84.2,86.1,87.2,87.0,85.4
23055040,CO,Samana,Samana,Caldas,1475,-74.99,5.42,93.2,92.1,92.6,92.4,91.8,89.7,85.8,85.4,89.3,92.4,93.9,94.2,91.1
26175070,CO,Rafael Escobar,Supia,Caldas,1320,-75.65,5.47,73.9,72.5,72.5,76.8,77.4,76.1,72.5,72.2,71.0,78.4,79.2,76.5,74.9
26155150,CP,Brisas Las,Villamaria,Caldas,4150,-75.35,4.90,89.3,91.8,91.8,93.6,93.4,92.2,90.5,91.2,91.8,92.7,92.2,90.5,91.7
26145050,CO,Samaria La,Viterbo,Caldas,1020,-75.88,5.05,78.0,78.3,78.4,79.3,81.9,80.3,79.5,79.3,77.6,80.2,78.6,78.8,79.5
44045030,CO,Mono La,Belen de los Andaquies,Caqueta,300,-75.81,1.30,82.0,83.7,84.8,86.6,86.6,87.2,87.2,85.4,84.3,84.0,84.3,83.4,85.0
46035010,CO,Maguare,El Doncello,Caqueta,270,-75.16,1.64,75.4,78.4,83.3,86.2,86.4,87.3,86.3,84.3,83.2,83.3,83.3,80.1,83.2
44035020,CO,Apto G Artunduaga,Florencia,Caqueta,244,-75.56,1.59,76.2,77.7,81.2,83.3,84.2,85.3,83.9,81.3,79.9,80.2,80.5,78.9,81.0
44035030,AM,Macagual,Florencia,Caqueta,280,-75.66,1.50,81.3,82.5,85.8,87.6,87.6,87.9,87.3,85.7,84.4,84.5,84.8,83.8,85.3
46035020,CO,Pto Rico,Puerto Rico,Caqueta,285,-75.15,1.92,76.2,78.0,82.8,85.7,86.4,87.2,86.6,84.2,83.1,83.3,83.2,80.2,83.1
44045010,CO,San Jose de Fragua,San Jose del Fragua,Caqueta,320,-75.96,1.33,80.7,82.0,85.0,86.5,86.3,87.7,87.0,85.3,82.8,83.3,84.2,83.8,84.6
46015010,CP,S.Vcte Caguan,San Vicente del Caguan,Caqueta,300,-74.76,2.06,71.6,72.7,78.4,83.2,82.9,83.6,84.1,82.4,80.9,81.8,81.6,77.2,80.4
46015020,CO,Sta Rosa Caguan,San Vicente del Caguan,Caqueta,240,-74.79,1.74,74.5,76.7,82.3,86.1,86.6,87.6,87.0,85.4,83.9,83.7,83.1,78.9,83.1
44135010,CP,Araracuara,Solano,Caqueta,150,-72.38,-0.62,85.4,86.5,87.1,88.1,88.4,89.0,88.9,86.1,85.6,85.8,86.9,85.9,87.1
44055010,SP,Tres Esquinas,Solano,Caqueta,219,-75.24,0.74,80.3,82.4,85.5,87.5,88.2,88.5,87.7,86.3,85.1,85.7,85.4,82.1,85.5
44045020,CO,Valparaiso,Valparaiso,Caqueta,270,-75.70,1.20,80.6,82.0,84.2,86.2,86.7,86.9,86.0,84.3,83.4,83.0,83.4,81.6,84.1
35195030,CO,Aguazul,Aguazul,Casanare,380,-72.55,5.18,68.2,68.4,71.1,78.0,82.6,84.4,83.4,81.5,81.1,80.6,78.7,72.8,77.7
35225020,CO,Modulos,Orocue,Casanare,130,-71.43,4.91,72.1,71.0,71.0,80.5,85.4,86.2,85.5,84.8,83.4,82.3,81.1,77.5,80.5
35195020,CO,Tauramena,Tauramena,Casanare,460,-72.75,5.02,77.4,75.4,72.7,80.9,83.2,84.6,84.3,83.5,82.4,80.8,81.9,80.6,81.2
35095110,CP,Huerta La Grande,Villanueva,Casanare,255,-72.92,4.66,64.0,63.3,68.7,79.1,83.7,84.5,83.5,81.5,80.0,78.6,78.4,71.8,76.7
35215010,CP,Apto Yopal,Yopal,Casanare,325,-72.39,5.32,60.2,60.7,63.9,77.7,82.4,84.0,82.7,80.9,79.8,78.5,75.7,69.4,75.2
52025010,CO,Bolivar,Bolivar,Cauca,1510,-77.00,1.83,80.3,79.4,78.7,80.9,80.3,73.4,66.9,62.2,69.6,78.4,83.8,83.0,76.7
52025020,CO,Milagros Los,Bolivar,Cauca,2300,-76.89,1.75,85.7,86.0,85.1,84.7,83.4,80.6,77.7,74.2,76.0,83.4,87.8,86.9,82.7
26025090,CO,Venta De Cajibio,Cajibio,Cauca,1850,-76.56,2.58,84.7,85.1,85.6,85.8,84.9,83.1,79.9,78.3,81.5,84.6,86.0,86.2,83.9
53045030,CO,Apto Guapi,Guapi,Cauca,10,-77.89,2.57,88.9,88.1,87.8,87.6,88.7,89.0,88.7,88.4,88.6,88.4,88.9,89.5,88.5
53045010,CP,Bonanza,Guapi,Cauca,10,-77.88,2.57,93.5,93.4,92.5,92.0,93.3,93.4,93.7,93.0,93.1,92.7,93.5,93.8,93.2
57025010,CP,Gorgona,Guapi,Cauca,10,-78.17,2.96,90.0,89.5,89.1,89.4,90.5,90.6,89.5,89.1,90.8,89.8,89.9,89.6,89.9
52025050,CO,Sierra La,La Sierra,Cauca,1870,-76.75,2.19,88.1,87.2,87.8,88.2,87.4,83.2,76.2,71.8,75.3,83.4,89.3,90.0,84.2
52025060,CP,Gja Exp Univ Narin,Mercaderes,Cauca,580,-77.19,1.91,77.2,76.8,77.6,77.7,77.3,77.1,73.2,69.4,74.2,76.9,79.5,79.8,76.5
52025030,CO,Mercaderes,Mercaderes,Cauca,1174,-77.16,1.76,78.3,77.7,78.3,81.1,80.6,77.7,70.3,66.2,69.8,76.3,80.7,80.6,76.6
26065010,CO,Ing Cauca,Miranda,Cauca,1000,-76.35,3.27,78.7,78.6,79.2,81.0,80.9,79.9,77.4,76.6,78.1,79.7,81.8,80.6,79.2
26065020,CO,Miranda,Miranda,Cauca,1128,-76.22,3.25,83.8,82.6,82.5,83.5,83.7,82.9,81.1,80.1,81.5,83.0,83.3,83.4,82.7
52015020,CO,Fonda La Citec,Patia,Cauca,635,-77.05,2.15,77.2,76.7,76.6,78.7,78.4,76.6,67.8,63.2,65.8,73.8,78.9,79.3,74.4
26025100,CO,Tunia,Piendamo,Cauca,1800,-76.53,2.67,82.4,83.7,84.3,85.2,85.4,83.2,80.7,77.8,80.1,83.3,85.2,85.2,83.1
26035030,SP,Apto G L Valencia,Popayan,Cauca,1749,-76.61,2.45,79.0,79.5,79.3,80.6,79.9,76.7,71.6,68.7,73.1,79.3,82.3,83.0,77.7
26045010,CO,Ing Bengala,Puerto Tejada,Cauca,1000,-76.42,3.26,80.0,79.7,80.3,81.0,81.3,81.3,79.4,78.1,78.5,80.3,81.0,81.0,80.2
26015020,CO,Paletara,Purace,Cauca,2900,-75.45,2.17,88.0,87.3,87.9,87.7,88.5,88.0,88.3,88.5,87.4,86.9,86.8,87.1,87.7
21055030,CO,Sta Leticia,Purace,Cauca,2085,-76.16,2.24,80.8,80.7,81.5,82.3,82.5,83.0,82.7,81.6,80.8,81.6,82.3,81.9,81.9
44015030,CP,Valencia,San Sebastian,Cauca,2900,-76.67,1.90,84.0,83.0,84.2,84.2,84.0,84.3,84.9,85.1,83.6,84.3,84.7,84.2,84.2
26025030,CO,Japio,Santander de Quilichao,Cauca,1015,-76.45,3.05,78.2,77.7,78.5,80.5,80.4,79.2,75.3,72.4,74.6,78.7,80.1,79.4,77.9
52015010,CO,Paispamba,Sotara,Cauca,2450,-76.61,2.25,86.9,87.2,87.2,87.1,83.8,78.8,73.3,71.0,75.1,84.0,89.8,89.0,83.1
26025070,CO,Gabriel Lopez,Totoro,Cauca,3000,-76.29,2.51,79.1,78.4,79.5,79.2,80.0,80.7,81.3,80.6,79.0,79.1,79.1,78.5,79.7
23215030,CO,Aguas Claras,Aguachica,Cesar,208,-73.60,8.23,73.7,69.8,72.1,77.0,81.5,82.1,80.0,79.8,81.1,81.9,81.7,77.5,78.1
28025090,CO,Centenario Hda,Agustin Codazzi,Cesar,100,-73.27,9.85,69.4,67.3,70.2,75.6,80.4,79.6,77.6,78.9,81.8,82.7,82.0,77.2,76.9
28025070,AM,Motilonia Codazzi,Agustin Codazzi,Cesar,180,-73.25,10.00,60.6,59.8,63.0,69.8,75.5,74.9,71.6,73.4,77.2,79.9,77.8,69.1,71.2
28025080,CP,Socomba,Becerril,Cesar,170,-73.24,9.69,65.2,66.8,70.1,75.7,80.5,79.8,76.5,78.9,80.9,82.5,81.5,74.1,76.1
25025250,CO,Chiriguana,Chiriguana,Cesar,40,-73.59,9.36,72.2,70.7,73.4,77.8,81.4,81.6,79.0,78.8,82.6,83.7,83.1,78.6,78.6
25025330,CP,Col Agro Pailitas,Pailitas,Cesar,50,-73.63,8.96,75.8,72.4,73.7,77.1,81.0,80.7,80.5,80.5,83.5,84.9,85.1,80.7,79.8
28025020,CO,Rincon El,San Diego,Cesar,350,-73.13,10.27,72.0,69.5,69.0,73.2,78.6,79.6,76.4,77.4,79.8,81.3,80.4,76.8,76.0
28035030,SP,Apto Alfonso Lopez,Valledupar,Cesar,138,-73.25,10.44,58.4,55.7,57.0,64.5,72.8,71.8,66.3,69.3,74.7,76.7,74.2,66.1,67.4
28035020,CO,Callao El,Valledupar,Cesar,110,-73.32,10.36,65.7,62.6,63.0,68.1,74.4,73.9,71.3,73.1,77.2,78.7,76.8,72.3,71.5
28035040,CO,Guaymaral,Valledupar,Cesar,50,-73.65,9.90,63.2,62.2,62.7,63.5,66.3,65.4,65.2,66.1,68.0,69.9,68.9,64.9,65.5
28035010,CO,Villa Rosa,Valledupar,Cesar,70,-73.55,10.19,61.6,59.2,60.4,67.4,74.9,74.2,72.8,74.8,79.4,81.1,79.0,70.5,71.4
56015010,CO,Panamericana,Bahia Solano,Choco,4,-77.40,6.22,89.5,88.6,89.3,89.6,90.8,91.0,90.6,91.0,91.4,91.7,92.4,91.5,90.8
11035010,CO,Lloro,Lloro,Choco,90,-76.58,5.51,90.5,90.1,89.8,90.0,89.2,89.1,89.2,89.1,89.2,89.8,90.0,90.8,89.9
54085010,CO,Noanama,Medio San Juan,Choco,40,-76.93,4.69,91.3,91.0,90.5,90.7,90.4,91.0,90.9,91.2,91.0,91.3,91.5,92.0,91.1
11045010,SP,Apto El Carano,Quibdo,Choco,53,-76.64,5.69,86.6,85.2,85.2,86.1,85.9,86.3,85.3,85.1,86.0,86.8,87.3,87.9,86.1
11035020,CO,San Isidro,Rio Quito,Choco,45,-76.75,5.63,89.6,88.4,87.9,88.2,88.1,88.4,87.7,87.7,87.6,88.3,89.0,90.1,88.4
11135010,CO,Sautata,Riosucio,Choco,2,-77.12,7.85,83.6,82.6,81.2,84.4,86.5,86.0,86.0,86.4,86.4,85.9,86.6,86.2,85.1
54025010,CO,San Jose Palmar,San Jose del Palmar,Choco,1115,-76.23,4.90,93.0,92.7,91.7,91.1,90.6,91.2,90.3,90.7,91.3,92.0,92.4,93.3,91.8
25025150,CO,Ayapel,Ayapel,Cordoba,22,-75.16,8.30,81.1,79.4,78.4,81.0,83.9,84.6,83.8,85.3,84.8,85.2,85.0,83.7,83.1
13075030,AM,Turipana,Cerete,Cordoba,20,-75.80,8.84,78.5,77.5,76.0,78.2,83.0,83.2,82.9,82.8,83.9,84.2,84.0,82.0,81.2
13075010,CO,Chima,Chima,Cordoba,20,-75.62,9.15,84.8,84.1,83.8,84.1,85.6,86.1,86.0,85.8,86.4,86.7,86.8,86.0,85.5
13075020,CO,Salado El,Cienaga de Oro,Cordoba,40,-75.58,8.91,83.7,82.1,81.3,81.5,84.8,85.6,84.8,85.5,85.9,86.5,86.0,84.7,84.3
13085010,CP,Doctrina La,Lorica,Cordoba,20,-75.91,9.30,82.7,81.6,81.6,82.3,84.7,84.7,83.9,84.7,85.4,85.6,85.3,84.2,83.9
13085020,CO,Lorica,Lorica,Cordoba,30,-75.84,9.25,82.5,80.8,80.5,81.8,85.8,86.2,85.3,85.4,86.5,87.0,86.7,84.4,84.4
25025160,CO,Cuba Hda,Montelibano,Cordoba,50,-75.40,8.00,86.2,84.5,84.3,85.0,86.0,86.1,87.2,86.9,87.1,87.5,88.1,87.8,86.3
13085040,SS,Apto Los Garzones,Monteria,Cordoba,20,-75.83,8.83,77.2,76.1,75.7,77.2,81.1,81.3,80.5,81.6,82.2,81.8,82.7,80.7,79.6
13055030,CO,Galan,Monteria,Cordoba,30,-75.97,8.66,79.9,78.6,78.7,80.2,82.8,82.9,82.4,82.7,83.5,83.3,82.9,82.1,81.6
13065020,CO,Maracayo,Monteria,Cordoba,25,-75.89,8.41,85.7,83.7,84.2,85.4,86.3,86.5,86.9,87.7,88.1,86.6,87.1,87.2,86.2
13075050,AM,Univ de Cordoba,Monteria,Cordoba,15,-75.86,8.79,81.2,79.7,78.4,80.6,83.7,84.6,84.3,84.3,85.2,85.0,84.9,83.9,83.0
25015010,CO,Centro Alegre,Planeta Rica,Cordoba,170,-75.63,8.18,79.6,79.1,78.4,79.5,82.6,82.9,83.5,83.7,84.1,83.7,83.8,82.9,82.1
25025190,CO,Planeta Rica,Planeta Rica,Cordoba,90,-75.58,8.40,78.2,77.0,76.2,77.8,81.5,82.4,82.3,82.6,82.9,83.0,82.7,81.5,80.9
12045020,CO,Cristo Rey,Puerto Escondido,Cordoba,15,-76.23,9.07,82.7,80.9,80.2,81.9,84.8,85.7,85.3,85.5,86.1,85.7,86.0,84.7,84.1
25025170,CO,Colomboy,Sahagun,Cordoba,125,-75.50,8.74,78.3,77.4,77.1,80.3,84.1,84.4,83.8,84.0,85.0,85.0,84.5,82.4,82.1
13085030,CO,San Bernardo del V,San Bernardo del Viento,Cordoba,22,-75.95,9.37,87.7,87.2,86.8,86.5,87.6,88.5,87.8,88.8,89.1,88.8,89.2,89.1,87.9
23065060,CO,Sta Teresa,Alban,Cundinamarca,2200,-74.46,4.84,89.7,90.4,90.4,90.3,89.9,89.3,88.5,86.9,87.7,88.9,91.1,91.2,89.4
21205660,CO,Mercedes Las,Anapoima,Cundinamarca,810,-74.53,4.58,77.0,77.7,79.5,80.5,81.1,77.9,74.7,71.7,72.9,77.6,82.0,80.1,78.2
21205670,CO,Florida La,Anolaima,Cundinamarca,1915,-74.44,4.77,87.5,88.5,88.4,89.3,88.9,86.8,86.7,84.8,85.5,88.1,89.7,88.6,87.7
21206180,CO,Primavera D Matima,Anolaima,Cundinamarca,1850,-74.44,4.81,81.9,82.9,84.1,84.4,83.7,83.4,82.8,80.1,80.8,82.6,84.4,82.5,82.9
21206280,CO,Acapulco,Bojaca,Cundinamarca,2650,-74.33,4.65,89.9,89.9,91.2,92.8,91.9,91.6,91.5,91.3,91.0,91.4,91.7,91.3,91.4
21195110,CO,Penas Blancas,Cabrera,Cundinamarca,2050,-74.44,3.96,77.9,78.5,77.7,77.9,78.7,78.2,78.2,78.1,79.6,78.4,79.2,77.3,78.8
35025060,CO,Bolsa La,Choachi,Cundinamarca,3195,-73.98,4.58,92.0,93.4,94.8,95.7,95.9,95.1,96.3,96.2,94.9,94.8,94.9,93.9,94.8
21205740,CO,Silos,Choconta,Cundinamarca,2709,-73.70,5.12,82.9,82.5,83.8,87.0,88.1,90.0,90.6,89.5,87.4,85.8,85.9,85.2,86.7
21205160,CO,Ramada La,Funza,Cundinamarca,2545,-74.18,4.72,78.7,79.1,80.6,82.7,81.5,79.4,77.2,76.9,78.4,82.2,81.9,80.0,79.9
24015120,CP,Isla del Santuario,Fuquene,Cundinamarca,2580,-73.73,5.47,77.1,76.9,79.1,82.1,81.4,81.5,79.7,79.9,80.0,82.6,84.0,81.1,80.6
21195120,CP,Ita Valsalice,Fusagasuga,Cundinamarca,1460,-74.40,4.40,77.7,78.0,82.0,83.0,83.3,81.1,79.5,76.7,75.8,79.3,81.0,82.3,79.9
35065010,CO,Gacheta,Gacheta,Cundinamarca,1752,-73.65,4.83,68.1,69.5,71.3,74.7,75.9,76.9,76.9,75.8,73.7,73.3,73.6,71.2,73.5
21205700,CO,Guasca,Guasca,Cundinamarca,2750,-73.87,4.88,82.9,82.2,82.4,84.2,84.6,83.6,84.7,85.1,83.5,83.4,83.7,83.3,83.7
21235010,CO,Jerusalen,Jerusalen,Cundinamarca,316,-74.70,4.56,68.0,68.0,69.4,70.4,72.2,70.2,64.6,62.0,66.0,72.0,75.0,72.1,69.2
21205770,CO,Base Aerea Madrid,Madrid,Cundinamarca,2550,-74.27,4.73,79.3,80.0,81.4,82.0,82.2,81.1,79.7,78.9,79.9,81.6,82.5,80.7,80.7
21205420,AM,Tibaitata,Mosquera,Cundinamarca,2543,-74.21,4.69,81.7,81.3,82.8,84.3,83.7,82.0,80.8,80.1,81.1,83.9,85.4,83.5,82.5
21205400,CP,Checua-Nemocon,Nemocon,Cundinamarca,2580,-73.87,5.12,72.5,73.1,73.5,79.1,80.4,81.0,80.3,78.9,77.4,78.9,79.0,76.4,77.5
23065120,CO,Cabrera La,Pacho,Cundinamarca,2000,-74.14,5.14,85.2,85.3,84.8,86.4,85.9,84.3,83.8,83.2,83.3,85.5,86.0,85.8,84.9
21195060,CO,Pandi,Pandi,Cundinamarca,950,-74.49,4.19,71.6,70.4,73.0,77.2,78.8,74.7,70.9,66.3,67.8,74.0,77.7,76.6,73.3
35055010,CO,Japon El,Paratebueno,Cundinamarca,280,-73.30,4.38,68.8,66.6,72.1,80.3,83.2,84.5,84.2,82.0,80.1,79.7,79.6,75.5,78.0
21195070,CO,Pasca,Pasca,Cundinamarca,2256,-74.31,4.31,83.7,84.7,85.7,87.3,87.5,86.8,86.0,85.0,84.5,86.0,87.2,85.1,85.7
23035020,SP,Apto Palanquero,Puerto Salgar,Cundinamarca,172,-74.65,5.47,73.0,71.5,73.0,74.5,74.0,71.7,66.2,65.9,71.0,76.1,77.1,75.9,72.6
23125070,CO,San Cayetano,San Cayetano,Cundinamarca,2150,-74.07,5.30,85.3,85.9,86.6,87.1,87.1,85.1,84.2,83.0,83.6,86.6,87.5,85.8,85.6
23065100,CO,Sabaneta,San Francisco,Cundinamarca,2475,-74.31,4.90,87.2,87.5,89.3,88.7,87.5,85.6,85.2,84.9,86.0,87.0,88.7,88.2,87.2
21205720,CO,San Jorge Gja,Soacha,Cundinamarca,2900,-74.19,4.51,83.1,82.8,84.9,85.2,84.8,83.8,84.2,83.6,82.7,84.0,84.8,83.1,83.9
21205650,CP,Tabio,Tabio,Cundinamarca,2620,-73.93,4.77,75.4,77.5,78.3,80.1,81.4,81.0,79.3,78.4,78.1,81.1,80.6,78.6,79.2
21205980,CO,Providencia Gja,Tenjo,Cundinamarca,2560,-74.20,4.79,78.8,79.1,80.5,81.9,82.2,79.6,78.5,78.3,79.2,81.5,82.3,80.6,80.2
35025050,CO,Llano Largo,Ubaque,Cundinamarca,2980,-74.03,4.48,89.6,89.0,90.7,91.3,92.0,93.3,94.0,93.8,92.0,90.2,90.0,89.6,91.2
23065110,CO,Yacopi,Yacopi,Cundinamarca,1347,-74.35,5.48,89.0,87.7,88.4,89.4,88.9,85.5,82.5,82.7,86.3,89.3,90.4,89.7,87.6
31095010,AM,Pto Inirida,Inirida,Guainia,100,-67.93,3.87,80.6,79.0,79.4,84.1,86.6,87.1,86.0,84.9,82.6,82.6,83.2,81.9,83.8
32105070,CO,San Jose Guaviare,San Jose del Guaviare,Guaviare,165,-72.65,2.55,80.3,79.8,82.1,86.5,88.6,89.7,89.5,87.7,86.1,86.3,86.8,84.3,85.8
31015010,CO,Trueno El,San Jose del Guaviare,Guaviare,150,-72.64,2.37,79.4,78.7,82.5,88.6,89.5,90.0,89.6,89.8,87.5,87.5,89.1,84.8,86.7
21045010,CO,Betulia La,Agrado,Huila,780,-75.71,2.28,77.0,77.2,78.9,79.9,78.7,77.5,74.0,70.3,68.9,73.1,78.4,78.8,76.3
21105030,CO,Algeciras,Algeciras,Huila,1155,-75.32,2.52,75.6,74.7,76.8,79.2,78.1,76.1,72.9,69.5,69.8,73.3,78.5,78.6,75.2
21025020,CO,Altamira,Altamira,Huila,1352,-75.80,2.07,75.0,75.7,77.8,77.9,77.7,77.2,78.2,75.3,73.5,75.9,77.6,78.4,76.6
21025030,CO,Altamira El Grifo,Altamira,Huila,1368,-75.74,2.08,74.6,73.6,76.5,78.0,78.1,77.5,76.2,73.9,71.4,73.7,77.6,77.0,75.7
21115140,CO,Laureles Los,Baraya,Huila,2100,-74.92,3.09,84.1,85.3,85.7,86.9,87.4,85.7,85.4,84.1,82.8,86.0,86.9,86.8,85.6
21115160,AM,Manila La Hda,Baraya,Huila,600,-75.08,3.13,68.8,68.4,70.5,72.9,72.8,68.7,64.2,61.0,61.7,68.7,74.5,74.4,68.9
21145060,CO,Sto Domingo,Baraya,Huila,1275,-74.94,3.23,75.1,75.1,76.7,79.4,79.0,76.6,74.0,73.1,72.4,75.7,81.5,79.2,76.4
21105060,CP,Hidrobetania,Campoalegre,Huila,500,-75.42,2.71,70.9,70.3,75.1,72.9,70.8,66.1,62.6,59.0,59.2,67.7,74.8,75.2,68.5
21105040,CO,Potosi Hda,Campoalegre,Huila,680,-75.30,2.70,72.0,71.5,74.8,77.0,75.4,71.7,66.9,61.7,62.7,70.7,77.7,77.1,71.7
21105050,CP,Rosales Los,Campoalegre,Huila,553,-75.42,2.62,71.3,69.6,73.1,74.3,72.3,66.9,60.9,55.3,56.3,67.3,75.9,76.1,68.2
21145070,CO,Legiosa La,Colombia,Huila,1476,-74.70,3.31,81.6,82.2,84.0,85.7,85.2,85.7,86.3,83.6,82.0,82.4,84.7,83.4,84.1
21145080,CO,Sta Ana,Colombia,Huila,1410,-74.70,3.59,80.3,79.5,81.5,83.3,83.6,83.6,82.3,79.3,77.3,80.0,82.5,81.4,81.1
21065040,CO,Zuluaga,Garzon,Huila,1270,-75.53,2.25,83.1,83.0,85.3,85.3,85.0,84.7,83.1,82.0,80.8,82.2,84.7,85.3,83.7
21065030,CO,Jorge Villamil,Gigante,Huila,1500,-75.55,2.37,77.6,77.1,77.7,78.9,78.7,76.9,76.2,73.0,72.0,77.6,79.6,79.2,77.0
21035020,CO,Resina,Guadalupe,Huila,2102,-75.68,1.91,85.3,85.7,86.4,87.0,87.5,87.4,87.3,86.4,85.4,86.0,87.7,86.4,86.6
21085040,CO,Terpeya Colombia,Iquira,Huila,1650,-75.67,2.66,87.2,85.9,86.1,85.7,84.9,81.4,78.6,74.5,75.1,81.8,88.1,88.0,83.0
21055020,CP,Esc Agr La Plata,La Plata,Huila,1070,-75.89,2.38,82.7,81.1,82.4,82.5,82.5,81.7,79.0,74.5,73.1,77.6,82.8,83.7,80.1
21115020,SS,Apto Benito Salas,Neiva,Huila,439,-75.29,2.95,68.6,67.6,70.6,72.3,70.7,64.3,58.4,54.6,56.4,66.7,74.5,73.8,66.4
21135050,CO,Julia La,Neiva,Huila,1691,-75.53,3.10,78.7,78.8,79.5,79.2,78.3,77.3,74.3,72.9,73.7,76.7,79.6,79.9,77.4
21115100,CO,Palacio-Vegalarga,Neiva,Huila,1100,-75.07,2.94,77.0,76.7,79.6,80.7,79.1,76.0,73.5,69.8,71.1,77.3,81.5,80.6,76.9
21095010,CO,Juncal El,Palermo,Huila,460,-75.33,2.83,74.9,73.4,75.7,75.7,74.6,69.3,66.4,61.9,63.8,70.3,76.1,76.5,71.6
21015020,CO,Sevilla,Pitalito,Huila,1320,-76.12,1.82,80.2,79.8,81.0,82.2,82.1,83.7,84.3,83.0,82.0,81.3,81.8,81.2,81.8
21015030,CP,Parque Arqueologic,San Agustin,Huila,1800,-76.29,1.89,77.9,77.9,79.4,80.6,81.6,83.0,82.8,81.2,78.7,78.9,80.6,79.8,80.2
21125010,CO,Sta Maria,Santa Maria,Huila,1300,-75.58,2.94,84.6,84.3,84.1,84.0,84.4,83.5,82.3,79.5,80.0,82.8,85.0,85.2,83.3
21035040,CO,Libano El,Suaza,Huila,1045,-75.83,1.87,79.8,80.6,81.3,82.0,81.7,82.7,83.1,82.4,80.3,81.3,81.3,81.5,81.6
21115070,CO,Portal El,Tello,Huila,1300,-75.07,3.01,79.3,77.9,80.1,81.3,80.9,78.1,76.6,72.1,71.8,77.4,82.5,82.7,78.5
21145040,AM,San Alfonso,Villavieja,Huila,440,-75.11,3.37,67.9,65.6,67.7,72.7,71.5,64.3,59.0,56.6,58.3,68.2,75.0,73.4,66.5
21115060,CO,San Jose,Villavieja,Huila,400,-75.18,3.33,67.5,66.8,68.3,70.2,69.6,65.8,61.0,57.6,59.4,67.0,72.4,71.7,66.5
21115080,CO,Villavieja Ffcc,Villavieja,Huila,430,-75.22,3.22,71.1,69.9,71.8,72.8,72.5,69.1,65.0,61.3,62.3,68.8,74.7,73.8,69.3
15065050,CP,Camp Intercor,Albania,La Guajira,122,-72.53,11.13,71.5,69.2,66.2,69.3,74.1,72.8,69.1,69.7,75.1,78.6,78.9,74.9,72.2
15035020,CO,Termoguajira,Dibulla,La Guajira,5,-73.41,11.25,84.2,83.4,83.4,83.4,83.8,82.9,81.6,82.1,84.1,85.3,84.9,84.8,83.8
15065040,CO,Paulina La,Fonseca,La Guajira,170,-72.83,10.90,69.8,69.4,69.2,70.1,74.7,72.8,70.3,72.6,77.1,80.3,78.0,77.6,72.7
15065130,CP,Mina La,Hatonuevo,La Guajira,80,-72.62,11.14,71.1,68.6,67.6,69.6,73.5,71.1,67.1,69.2,75.5,78.3,79.2,76.3,72.1
15085030,CO,Esc Agr Carraipia,Maicao,La Guajira,118,-72.37,11.22,79.3,75.0,73.2,74.5,78.1,77.3,75.1,74.4,78.8,82.6,84.6,84.0,77.6
15075030,CP,Manaure,Manaure,La Guajira,1,-72.48,11.78,74.2,74.3,75.1,74.5,72.6,68.8,67.3,71.1,73.4,76.2,74.2,74.7,72.9
15065010,SP,Apto A.Padilla,Riohacha,La Guajira,4,-72.92,11.53,71.9,69.7,71.5,73.8,74.2,69.1,66.4,71.6,78.2,80.3,80.0,75.3,73.5
15045010,CO,Matitas,Riohacha,La Guajira,20,-73.03,11.26,76.9,75.7,75.9,77.9,81.6,77.6,75.2,78.2,82.6,84.1,83.2,81.1,79.2
15085020,CP,Nazareth,Uribia,La Guajira,85,-71.28,12.18,82.5,80.6,80.9,81.7,81.2,80.1,80.1,79.9,81.2,83.7,85.1,84.2,81.7
15075060,CP,Pto Bolivar,Uribia,La Guajira,10,-72.00,12.22,75.2,73.3,73.0,74.4,74.5,71.7,71.2,73.2,75.4,78.0,77.4,76.1,74.5
15085040,CO,Rancho Grande,Uribia,La Guajira,50,-71.82,11.69,67.2,66.1,65.4,66.1,67.6,66.0,64.9,66.2,68.9,71.9,71.4,69.4,67.5
28015070,CO,Urumita,Urumita,La Guajira,255,-73.01,10.56,66.0,65.0,63.9,65.2,69.4,69.1,67.4,67.3,70.0,71.6,72.2,70.1,68.3
15015020,CO,Ye La,Cienaga,Magdalena,20,-74.21,10.99,71.3,69.2,69.7,71.8,75.0,75.3,74.9,76.7,77.8,79.4,78.3,75.7,74.6
25025090,SP,Apto Las Flores,El Banco,Magdalena,34,-73.97,9.05,70.9,69.4,70.4,72.6,75.6,76.5,74.8,75.2,76.6,78.2,77.5,74.5,74.2
29065080,CO,Media Luna,Pivijay,Magdalena,20,-74.51,10.51,81.3,79.3,79.5,79.9,81.9,82.3,82.1,82.1,83.3,83.8,84.2,83.0,81.9
25025320,CP,Alamos Los,San Sebastian de Buenavista,Magdalena,25,-74.27,9.30,75.6,73.3,73.8,78.4,82.4,82.4,79.8,81.5,83.2,84.8,84.9,81.1,80.2
25025300,CO,Seis El,San Sebastian de Buenavista,Magdalena,50,-74.19,9.38,71.1,69.3,71.6,75.0,78.1,78.3,77.1,78.3,80.0,81.6,81.0,76.0,76.4
15015110,CO,Alto de Mira,Santa Marta,Magdalena,1080,-73.93,11.09,91.8,92.1,92.1,93.2,93.0,92.8,92.6,91.8,90.7,91.3,92.8,92.8,92.3
15015050,SP,Apto Simon Bolivar,Santa Marta,Magdalena,4,-74.23,11.13,73.7,71.8,71.7,73.6,76.0,76.3,76.7,77.7,78.7,79.8,78.7,76.4,75.9
15015100,CO,Parque Tayrona,Santa Marta,Magdalena,30,-73.91,11.29,86.9,86.0,85.7,85.5,87.5,87.4,86.1,86.8,88.1,89.6,90.0,88.8,87.3
15015060,CP,San Lorenzo,Santa Marta,Magdalena,2200,-74.03,11.08,88.7,89.4,90.8,92.6,93.1,93.0,92.4,92.8,93.3,94.4,93.1,90.5,92.0
15015040,CO,Univ Tec Magdalena,Santa Marta,Magdalena,7,-74.19,11.22,67.4,66.4,66.9,70.3,74.0,73.1,72.3,76.0,79.3,81.6,77.8,71.9,73.1
29065020,CO,Padelma,Zona Bananera,Magdalena,20,-74.20,10.72,80.6,79.4,78.7,79.8,82.0,82.0,81.7,82.4,82.7,84.1,84.2,82.8,81.6
29065030,CO,Prado Sevilla,Zona Bananera,Magdalena,18,-74.15,10.76,79.7,78.0,77.3,78.5,81.4,82.5,82.2,82.5,83.3,84.6,84.0,82.5,81.3
35105050,CO,Guaicaramo,Barranca de Upia,Meta,190,-72.95,4.47,70.1,70.5,74.2,82.6,86.2,86.8,85.6,84.8,83.0,82.0,81.4,76.1,80.4
35045020,CO,Cabana La Hda,Cumaral,Meta,305,-73.36,4.30,72.9,72.8,77.2,83.8,86.1,87.2,86.6,84.5,83.0,83.2,83.2,79.6,81.9
32075060,CO,Cooperativa La,Fuente de Oro,Meta,280,-73.70,3.37,80.9,81.1,82.5,84.2,85.3,86.2,86.2,84.9,83.9,83.2,84.1,82.4,83.8
32075040,CO,Holanda La,Granada,Meta,360,-73.72,3.52,73.9,73.4,76.8,82.0,83.9,85.5,85.1,83.7,82.1,82.7,82.2,79.8,81.2
32035020,CO,Balsora La,La Macarena,Meta,372,-73.93,2.44,78.3,77.6,83.6,89.7,90.5,90.8,90.1,88.9,88.0,87.3,86.5,79.8,86.5
32035010,CP,Macarena La,La Macarena,Meta,350,-73.79,2.18,77.8,77.1,81.8,87.1,88.2,90.2,90.4,87.8,87.1,86.4,85.6,82.4,85.8
32065010,CO,Lejanias,Lejanias,Meta,680,-74.03,3.53,79.4,78.1,82.0,85.8,87.1,88.1,87.8,85.7,84.5,85.2,85.6,83.1,84.4
32075050,CO,Mesetas,Mesetas,Meta,620,-74.04,3.38,76.7,75.7,79.2,84.5,86.3,87.8,88.1,86.0,84.6,84.5,85.1,81.3,83.7
32075080,CO,Pto Lleras,Puerto Lleras,Meta,245,-73.37,3.27,74.6,74.8,76.9,81.1,82.2,83.6,84.1,82.9,82.3,79.9,79.8,77.8,80.3
35125010,CO,Margaritas Las Hda,Puerto Lopez,Meta,150,-72.16,4.34,71.8,71.2,71.6,78.4,82.3,85.3,85.9,84.9,82.7,82.4,81.9,78.2,79.8
35015050,CO,Barbascal,San Martin,Meta,250,-73.35,3.63,76.0,76.1,80.9,84.7,85.9,87.4,86.9,85.6,83.8,84.4,83.7,80.2,83.0
35035020,SP,Apto Vanguardia,Villavicencio,Meta,423,-73.62,4.16,67.7,65.0,70.7,79.1,82.0,83.2,82.2,79.2,77.1,78.5,79.5,75.2,76.6
35025020,AM,Libertad La,Villavicencio,Meta,336,-73.47,4.06,70.0,69.3,73.0,82.7,85.3,86.3,85.4,83.0,81.7,81.8,81.6,77.6,80.0
35035070,CP,Unillanos,Villavicencio,Meta,340,-73.58,4.08,74.0,74.0,77.7,83.2,84.9,86.2,85.9,84.1,82.6,82.3,82.2,80.6,81.7
32075030,CO,Vista Hermosa,Vistahermosa,Meta,325,-73.75,3.12,68.6,68.3,75.3,81.7,83.6,85.2,84.0,82.6,80.7,81.0,79.4,75.6,79.2
52055010,SP,Apto San Luis,Aldana,Narino,2961,-77.68,0.86,83.3,83.0,83.8,85.1,85.1,84.9,83.8,82.0,80.7,81.8,83.3,84.1,83.4
51025050,CP,Altaquer,Barbacoas,Narino,1010,-78.09,1.25,93.4,92.9,92.6,92.8,93.7,93.9,94.1,93.9,93.9,93.9,93.9,94.1,93.6
52065020,CO,Barbacoas,Barbacoas,Narino,60,-78.14,1.67,89.9,89.2,89.5,89.6,90.0,90.3,90.5,90.3,90.1,90.5,90.1,90.2,90.0
52045020,SP,Apto Antonio Narin,Chachagui,Narino,1816,-77.29,1.39,80.9,79.8,80.2,82.3,80.7,73.7,66.3,63.4,69.0,79.6,84.0,83.9,77.0
52055030,CO,Bombona,Consaca,Narino,1493,-77.47,1.18,82.0,80.8,81.1,82.9,82.0,78.3,71.2,68.5,72.9,80.4,83.4,83.8,79.0
52055070,CO,Ospina Perez,Consaca,Narino,1700,-77.47,1.27,79.7,78.4,78.3,81.8,80.9,73.2,63.8,64.3,70.3,79.8,81.3,81.8,76.1
52055040,AM,Botana,Pasto,Narino,2820,-77.28,1.16,79.7,79.4,80.2,79.4,78.9,77.5,76.5,74.8,74.7,78.0,81.0,80.8,78.3
47015100,CP,Encano El,Pasto,Narino,2830,-77.16,1.16,85.0,85.8,86.4,86.9,87.4,88.4,88.1,87.0,86.5,85.4,84.9,85.9,86.4
52045010,AM,Obonuco,Pasto,Narino,2710,-77.30,1.20,82.2,81.3,82.8,82.0,81.4,79.1,76.7,74.4,74.6,79.4,83.1,83.1,80.0
47015080,CO,Monopamba,Puerres,Narino,1776,-77.30,0.80,89.7,89.2,89.3,89.9,90.2,91.3,91.1,90.6,88.9,87.8,88.3,88.6,89.6
52055060,CO,Tanama,Samaniego,Narino,1500,-77.58,1.37,82.0,81.5,81.6,82.4,81.8,79.7,76.1,73.5,76.5,80.8,83.0,82.9,80.2
51035020,CP,Cccp Dl Pacifico,San Andres de Tumaco,Narino,1,-78.73,1.82,88.3,87.8,86.3,87.3,87.9,88.1,86.9,86.2,86.3,86.2,86.6,87.7,87.0
51025010,AM,Mira El Gja,San Andres de Tumaco,Narino,16,-78.70,1.55,87.9,87.9,87.3,88.1,89.0,88.8,88.5,88.3,88.4,87.7,88.7,89.2,88.3
52045030,CO,San Bernardo,San Bernardo,Narino,2190,-77.03,1.54,85.3,84.7,85.2,85.4,84.1,81.6,79.4,78.0,77.2,82.6,86.3,86.5,83.1
52055100,CO,Villa Rosa,Sapuyes,Narino,3000,-77.64,1.03,80.8,80.7,81.1,81.5,81.9,81.7,81.3,80.8,80.3,81.0,82.6,82.9,81.4
52045040,CO,Taminango,Taminango,Narino,1875,-77.27,1.55,88.9,88.2,88.4,89.3,87.5,81.5,74.0,69.9,79.4,86.7,90.3,90.1,84.6
52055090,CP,Sindagua,Tangua,Narino,2800,-77.39,1.11,80.0,79.8,80.2,80.0,79.9,79.4,77.5,75.5,75.1,77.8,81.9,81.4,79.1
52055020,CO,Paraiso El,Tuquerres,Narino,3120,-77.64,1.07,85.8,85.5,86.0,85.9,85.8,84.9,83.8,83.0,82.7,84.9,86.0,86.2,85.1
16055040,CP,Abrego Centro Admo,Abrego,Norte de Santander,1430,-73.22,8.09,80.4,78.8,78.8,81.2,82.6,80.7,77.6,78.5,81.2,83.2,83.3,82.7,80.6
23195180,CO,Esc Agr Cachira,Cachira,Norte de Santander,1882,-73.05,7.74,83.2,82.2,83.8,87.1,87.4,85.5,83.6,84.5,87.0,88.7,88.9,85.8,85.6
16015060,CO,Blonay,Chinacota,Norte de Santander,1235,-72.60,7.58,82.8,82.3,81.9,82.7,81.3,80.9,80.3,78.9,80.3,82.4,84.7,84.5,81.9
16055090,CP,Ins Agr Convencion,Convencion,Norte de Santander,1076,-73.34,8.47,83.8,81.9,81.9,84.2,83.2,81.1,80.3,79.2,81.5,83.1,85.3,85.9,82.6
16015010,SP,Apto Camilo Daza,Cucuta,Norte de Santander,250,-72.51,7.93,75.9,74.2,74.6,76.1,70.8,63.7,62.0,61.2,64.7,71.8,77.7,78.8,71.1
16025010,CP,Carmen de Tonchala,Cucuta,Norte de Santander,285,-72.57,7.85,74.9,73.5,74.4,74.6,67.6,60.5,59.3,58.9,62.1,69.0,75.8,76.6,68.8
16025040,CP,Cinera-Villa Olga,Cucuta,Norte de Santander,100,-72.47,8.17,82.3,81.1,81.6,82.4,80.1,78.2,75.5,74.6,77.0,80.4,82.8,83.8,80.1
16015040,CO,Sta Isabel,Cucuta,Norte de Santander,90,-72.43,8.23,83.6,82.7,81.9,80.0,80.8,80.3,79.9,79.4,79.7,81.1,81.2,84.8,81.5
16045020,CO,Tarra El,El Tarra,Norte de Santander,180,-73.08,8.59,81.6,80.3,80.6,80.0,80.3,79.7,79.4,79.3,79.4,79.4,80.6,81.4,80.2
16015090,CP,Tama Parque Nal,Herran,Norte de Santander,2500,-72.44,7.42,89.5,90.2,90.5,91.1,90.5,89.9,89.8,89.4,89.3,90.1,91.1,90.6,89.9
16055060,CO,Playa La,La Playa,Norte de Santander,1500,-73.24,8.22,83.6,81.7,81.2,82.8,82.3,80.0,77.4,78.8,82.8,84.5,85.1,84.3,82.0
16055010,CP,Apto Aguas Claras,Ocana,Norte de Santander,1435,-73.36,8.32,83.1,82.0,81.8,83.2,83.4,83.2,81.2,83.6,84.7,85.6,85.9,86.2,83.6
16055100,CO,Univ Fco P Santand,Ocana,Norte de Santander,1150,-73.32,8.24,85.6,83.5,82.8,84.3,85.5,84.2,82.5,83.1,85.3,86.3,87.2,87.1,84.8
16015020,AM,Iser Pamplona,Pamplona,Norte de Santander,2340,-72.65,7.37,78.6,78.5,78.1,79.1,76.3,74.1,73.0,73.1,74.7,77.8,80.4,78.8,76.9
16015030,CO,Esperanza La,Ragonvalia,Norte de Santander,1760,-72.53,7.57,89.2,89.8,91.2,90.7,89.5,89.7,89.2,88.5,88.5,89.5,91.3,91.2,89.9
16025060,CO,Francisco Romero,Salazar,Norte de Santander,1000,-72.80,7.77,81.3,80.9,81.7,82.4,80.3,77.8,76.0,75.2,77.3,81.2,82.8,82.9,80.0
16025030,CP,Salazar,Salazar,Norte de Santander,860,-72.83,7.77,81.9,81.3,82.6,82.4,79.3,76.8,75.1,74.1,75.3,79.4,82.6,82.9,79.5
16035030,CO,Sardinata,Sardinata,Norte de Santander,320,-72.80,8.08,83.0,81.1,80.9,82.7,79.8,73.4,71.0,70.9,77.1,82.2,84.9,85.3,79.3
37015010,CO,Silos,Silos,Norte de Santander,2765,-72.75,7.21,75.4,76.4,79.1,82.7,83.6,84.3,83.9,83.2,82.2,82.6,81.3,78.4,81.1
16055020,CO,Teorama,Teorama,Norte de Santander,1160,-73.29,8.44,87.7,87.1,86.3,88.3,87.0,86.4,84.5,83.9,85.5,86.9,89.4,90.0,87.0
16035020,CO,Petrolea,Tibu,Norte de Santander,62,-72.58,8.47,84.3,83.4,84.1,83.9,85.0,85.1,82.9,83.9,83.5,83.0,84.0,86.3,84.0
16035010,CO,Tibu,Tibu,Norte de Santander,50,-72.73,8.64,83.1,81.0,80.2,82.6,83.2,82.5,81.8,80.4,82.9,84.2,86.1,86.6,82.9
47015040,CO,Michoacan,Colon,Putumayo,2100,-76.88,1.18,85.5,85.4,86.4,86.9,87.5,88.2,88.2,87.5,86.2,85.4,84.8,85.5,86.4
44015040,CO,Mocoa Acueducto,Mocoa,Putumayo,650,-76.65,1.16,84.6,84.3,85.6,86.0,86.9,88.3,86.7,84.0,81.9,82.3,83.5,84.5,84.9
47045010,CO,Pto Leguizamo,Puerto Leguizamo,Putumayo,147,-74.78,0.18,80.0,83.1,86.0,87.8,88.1,88.4,87.5,85.7,84.8,84.6,84.1,83.5,85.4
47035020,CO,Pto Ospina,Puerto Leguizamo,Putumayo,190,-74.85,0.13,85.7,85.7,87.6,88.1,88.6,88.6,87.6,87.2,86.3,85.6,85.8,86.3,87.0
44115020,AM,Tagua La,Puerto Leguizamo,Putumayo,153,-74.67,-0.06,81.1,82.2,85.1,87.2,88.4,88.5,87.5,86.2,85.6,85.4,85.3,83.1,85.7
47015090,CO,Primavera La,Sibundoy,Putumayo,2067,-76.93,1.17,86.2,86.1,86.3,87.6,87.7,88.6,87.0,86.5,85.6,86.1,85.1,85.8,86.5
47015070,CO,Pto Umbria,Villagarzon,Putumayo,358,-76.57,0.84,86.3,86.2,87.6,88.2,88.7,89.3,88.4,86.4,84.7,84.6,85.7,86.3,86.8
44015010,AM,Villagarzon,Villagarzon,Putumayo,440,-76.62,1.03,85.7,85.9,86.7,87.2,87.1,87.0,86.5,85.1,82.1,83.0,85.6,85.6,85.6
26125060,SP,Apto El Eden,Armenia,Quindio,1229,-75.77,4.45,79.6,78.8,79.9,81.7,82.6,81.5,78.6,77.3,79.8,82.1,82.3,81.1,80.3
26125070,CO,Bella La,Calarca,Quindio,1450,-75.67,4.52,80.8,80.3,80.2,82.6,83.1,80.8,76.8,76.8,80.5,83.1,83.4,81.5,80.8
26135040,SP,Apto Matecana,Pereira,Risaralda,1342,-75.73,4.82,74.9,74.3,76.0,78.8,79.5,78.4,75.2,73.6,76.2,78.7,79.3,77.4,76.8
26135100,CO,Bohemia La,Pereira,Risaralda,970,-75.88,4.88,74.1,72.7,74.6,77.9,79.7,77.9,73.9,72.0,73.5,76.9,78.2,76.6,75.7
26135070,CO,Cedral El,Pereira,Risaralda,2120,-75.53,4.78,85.7,86.0,86.3,88.3,87.7,86.1,82.9,81.6,84.8,87.5,87.2,86.0,85.8
26135110,CO,Veracruz,Pereira,Risaralda,1720,-75.63,4.87,84.9,84.3,84.0,86.3,87.0,86.4,84.8,84.0,85.1,86.7,86.8,85.5,85.5
54015010,CO,Pueblo Rico,Pueblo Rico,Risaralda,1530,-76.03,5.23,92.2,92.0,91.3,92.1,91.8,91.9,91.3,91.2,91.5,91.8,92.8,92.1,91.9
26135060,CO,Jazmin El,Santa Rosa de Cabal,Risaralda,1600,-75.63,4.92,80.3,81.2,80.6,82.8,84.7,82.2,79.5,79.9,81.5,83.6,83.0,81.1,81.8
26135160,CO,San Remo,Santa Rosa de Cabal,Risaralda,2000,-75.58,4.84,84.3,83.4,85.3,86.5,87.1,86.4,84.0,83.4,85.3,86.2,86.5,85.8,85.4
26145030,CO,Camelia La,Santuario,Risaralda,1650,-75.97,5.08,84.5,82.7,83.5,84.8,85.7,84.0,80.8,79.1,82.3,84.7,86.2,86.0,83.7
17025020,SP,Apto El Embrujo,Providencia,San Andres Providencia y Sta C,1,-81.35,13.35,78.1,76.8,76.0,76.7,80.0,81.2,81.1,81.3,82.4,83.5,81.9,79.5,79.9
23125060,CO,Albania,Albania,Santander,1690,-73.91,5.76,87.1,86.5,87.1,84.6,87.2,86.6,84.6,83.2,85.0,86.9,88.0,87.7,86.3
23155030,SP,Apto Yariguies,Barrancabermeja,Santander,126,-73.81,7.03,73.9,73.3,76.6,81.0,81.7,80.8,78.0,78.6,80.8,82.9,83.1,79.7,79.2
23155040,CO,Centro El,Barrancabermeja,Santander,162,-73.77,6.86,81.8,81.8,83.3,85.3,85.4,84.7,83.1,83.2,83.7,85.3,85.8,84.4,84.0
23195040,CP,Univ Ind Santander,Bucaramanga,Santander,1018,-73.12,7.14,81.8,80.7,81.9,84.4,84.9,84.1,83.3,82.7,83.4,85.3,86.0,83.9,83.5
24035260,CO,Capitanejo,Capitanejo,Santander,1160,-72.69,6.52,58.4,57.9,61.1,64.4,67.6,66.8,65.2,64.1,65.9,68.0,65.9,61.2,63.9
24035270,CO,Tinaga Gja,Cerrito,Santander,2698,-72.71,6.84,68.6,70.0,73.0,77.6,78.6,76.6,75.7,76.6,78.5,79.8,78.1,72.3,75.6
24025050,CO,Charala,Charala,Santander,1350,-73.15,6.27,80.2,80.0,81.3,83.8,84.0,84.1,83.0,83.0,83.1,83.7,83.6,83.1,82.7
24015260,CO,Chima,Chima,Santander,1090,-73.37,6.36,74.0,73.7,73.8,74.4,75.1,75.0,74.7,74.5,74.5,74.5,75.0,74.2,74.5
23125120,CO,Cimitarra,Cimitarra,Santander,300,-73.95,6.31,84.0,84.0,84.6,84.8,85.2,84.7,83.8,83.6,84.0,85.2,85.2,85.0,84.6
23145020,CO,Carmen El,El Carmen de Chucuri,Santander,815,-73.51,6.70,84.1,84.2,85.1,85.2,84.8,85.0,83.8,84.0,85.6,86.6,86.8,86.2,85.0
24015280,CO,Gambita,Gambita,Santander,1900,-73.34,5.94,81.8,82.0,82.3,83.9,84.5,84.1,83.3,82.7,81.7,83.2,82.9,82.9,82.9
23195110,CO,Llano Grande,Giron,Santander,777,-73.17,7.03,75.2,73.9,75.7,77.1,78.3,77.9,76.8,76.1,76.1,77.4,77.0,76.4,76.5
24015250,CO,Laja La,Guadalupe,Santander,1400,-73.42,6.24,81.7,81.5,80.9,83.0,83.0,82.7,81.5,81.2,82.2,82.6,83.0,82.6,82.2
23125130,CO,Landazuri,Landazuri,Santander,1085,-73.81,6.22,88.1,88.9,88.8,88.2,88.5,88.0,86.4,86.0,87.4,88.6,89.5,89.6,88.1
23195130,SP,Apto Palonegro,Lebrija,Santander,1189,-73.18,7.12,82.9,81.7,83.4,86.4,86.9,85.9,84.1,83.5,84.7,87.2,88.5,87.1,85.2
24025040,CP,Esc Agr Mogotes,Mogotes,Santander,1667,-72.97,6.47,78.7,78.2,78.5,81.2,82.7,82.5,82.1,82.1,82.5,83.0,82.9,81.5,81.3
24055040,CO,Palmar El,Palmar,Santander,940,-73.29,6.55,68.8,68.0,68.8,72.2,75.3,75.0,72.7,73.0,73.6,75.6,76.0,73.3,72.9
24025020,CP,Cucharo El,Pinchote,Santander,975,-73.20,6.53,66.0,65.4,66.3,72.3,77.9,78.0,76.0,74.5,75.5,77.8,77.8,72.5,73.6
23125040,CO,Campo Capote,Puerto Parra,Santander,180,-73.92,6.62,83.1,82.6,82.9,83.9,84.5,84.4,82.5,82.4,83.2,84.9,84.5,85.2,83.9
23125050,CO,Carare,Puerto Parra,Santander,168,-74.06,6.65,81.2,79.3,80.9,82.8,82.1,81.6,81.0,81.2,82.0,83.3,82.7,82.6,81.7
24065010,CO,Brisas Las Hda,Puerto Wilches,Santander,138,-73.79,7.25,76.8,75.6,76.9,78.0,78.3,78.3,77.3,77.2,78.1,78.9,78.8,78.7,77.8
23185010,CP,Villa Leiva,Sabana de Torres,Santander,328,-73.54,7.46,81.0,78.2,79.0,83.1,84.5,84.0,82.2,83.2,84.1,85.6,85.5,83.9,82.7
23195200,CO,Cachiri,Surata,Santander,1850,-72.99,7.47,80.7,79.5,82.0,86.5,87.0,85.3,83.3,84.2,85.4,88.1,87.6,84.3,84.5
23195090,CO,Vivero Surata,Surata,Santander,1725,-72.99,7.37,81.1,80.9,81.3,84.1,84.1,83.9,82.7,82.3,83.2,84.8,84.7,82.7,83.0
37015020,CP,Berlin Automatica,Tona,Santander,3214,-72.87,7.19,84.4,84.0,85.4,87.6,88.4,88.6,88.8,88.1,87.4,87.8,87.2,86.1,87.0
24015270,CO,Velez Granja,Velez,Santander,2170,-73.67,6.00,86.7,86.3,86.7,89.3,88.9,88.2,87.0,87.4,87.3,89.1,90.0,89.0,87.9
24055030,CO,Zapatoca,Zapatoca,Santander,1810,-73.28,6.79,86.4,85.3,86.0,87.4,87.9,87.3,86.4,86.9,87.2,88.6,89.1,88.0,87.2
13095020,CP,Primates,Coloso,Sucre,200,-75.35,9.53,80.7,79.0,79.8,82.7,85.5,85.9,84.4,84.7,85.6,86.7,85.7,83.8,83.8
25025080,SS,Apto Rafael Barvo,Corozal,Sucre,166,-75.28,9.33,76.1,75.6,75.8,78.3,81.8,82.8,81.9,82.2,83.5,84.2,83.1,79.8,80.4
25025240,CP,Majagual,Majagual,Sucre,20,-74.64,8.55,86.2,85.4,83.3,85.3,85.9,85.7,84.1,85.7,86.9,87.2,86.3,85.8,86.0
25025270,AM,Univ de Sucre,Sampues,Sucre,160,-75.40,9.21,77.8,76.3,76.8,79.4,83.0,83.0,81.5,82.7,83.8,84.8,84.2,81.4,81.2
25025180,CO,San Benito Abad,San Benito Abad,Sucre,20,-75.04,8.94,79.7,77.8,77.4,78.4,80.8,81.1,81.2,82.1,82.0,82.7,83.0,81.7,80.7
21255090,CP,Armero Gja,Armero,Tolima,300,-74.91,5.00,68.6,67.8,70.5,71.6,71.9,70.2,66.3,64.3,66.6,70.9,73.2,70.6,69.4
22055020,CO,Mesa de Pole,Ataco,Tolima,500,-75.54,3.46,76.2,75.9,77.3,77.7,77.3,76.2,73.9,71.6,71.7,75.5,77.5,77.2,75.6
21215100,CO,Cajamarca,Cajamarca,Tolima,1920,-75.42,4.44,79.1,78.9,79.5,81.2,81.6,81.1,79.8,78.0,78.2,80.1,80.7,80.2,79.9
21215130,CO,Cucuana Hda,Cajamarca,Tolima,2120,-75.52,4.34,80.9,81.2,81.7,82.9,81.8,81.8,81.2,81.0,80.5,80.9,81.7,81.3,81.5
22045010,CO,Demostracion Gja,Chaparral,Tolima,1040,-75.50,3.72,79.2,78.4,79.5,80.7,79.5,75.2,70.4,67.4,72.0,79.0,82.4,81.0,77.1
22045020,CO,Limon El,Chaparral,Tolima,1000,-75.58,3.65,78.9,77.0,77.7,78.5,77.9,76.0,73.6,70.9,72.0,76.7,80.5,80.1,76.7
21135040,CO,Media Luna,Coyaima,Tolima,485,-75.12,3.77,70.8,69.9,72.0,75.8,75.0,66.1,57.8,54.6,61.3,72.3,77.6,76.6,69.1
21155040,CO,Dolores Hda Madron,Dolores,Tolima,1456,-74.91,3.53,78.8,77.4,79.3,79.5,78.5,74.2,71.0,68.0,69.9,78.5,83.0,81.9,76.6
21215080,CO,Chicoral,Espinal,Tolima,475,-75.00,4.23,70.2,70.5,71.7,77.0,77.2,73.3,67.8,62.8,67.4,73.6,76.3,75.0,72.0
21185020,AM,Nataima,Espinal,Tolima,431,-74.96,4.19,69.0,68.6,69.8,74.9,75.5,71.3,63.2,58.2,63.6,71.0,74.7,73.7,69.6
21185040,CO,Apto Santiago Vila,Flandes,Tolima,286,-74.80,4.28,66.5,65.9,68.3,72.8,74.8,70.8,64.4,58.0,63.9,70.5,74.7,71.2,68.3
21185030,CP,Guamo,Guamo,Tolima,360,-74.98,4.01,74.7,73.9,73.6,79.7,79.2,74.6,67.8,63.0,68.8,75.1,80.1,80.1,73.9
23025020,CO,Esperanza La,Honda,Tolima,222,-74.73,5.26,76.0,74.6,75.5,78.5,77.9,73.4,66.6,65.3,71.3,77.9,79.9,79.6,74.7
21245040,SS,Apto Perales,Ibague,Tolima,928,-75.15,4.43,76.9,76.6,78.8,81.3,81.2,76.6,70.3,65.6,72.4,79.9,83.4,81.2,77.0
21215140,ME,Cementos Diamante,Ibague,Tolima,780,-75.08,4.33,67.8,67.6,67.5,73.3,74.0,68.3,60.2,59.0,65.9,73.4,74.6,72.3,68.7
21245010,CO,Perales Hato Opia,Ibague,Tolima,750,-75.09,4.42,75.9,76.8,78.2,80.5,81.4,77.4,70.7,68.6,73.5,79.3,81.3,79.3,77.1
21255150,CP,Garcia Hda,Lerida,Tolima,350,-74.89,4.86,71.2,70.3,72.2,76.5,76.7,72.0,64.5,62.9,70.0,76.9,78.5,76.1,72.2
21255140,CP,Quinta La,Lerida,Tolima,500,-74.92,4.82,73.5,73.9,74.7,77.6,77.3,73.6,70.6,69.5,72.1,76.9,76.8,75.1,74.6
21195080,CO,Base Aerea Melgar,Melgar,Tolima,319,-74.64,4.21,71.1,70.8,73.4,75.1,75.9,74.7,69.6,64.2,66.8,71.8,74.5,72.4,71.8
21135030,CP,Anchique,Natagaima,Tolima,415,-75.11,3.57,72.6,71.0,72.7,75.2,73.9,66.2,59.6,55.4,60.0,70.5,77.9,77.4,69.4
22025010,CP,Apto Planadas,Planadas,Tolima,1355,-75.67,3.17,75.6,75.8,77.4,80.1,79.2,75.1,70.3,67.2,68.8,75.5,78.4,77.9,75.1
22015010,CO,Rosales Fca Los,Planadas,Tolima,2040,-75.78,3.22,87.4,87.6,88.0,88.8,89.4,87.8,87.3,86.3,86.5,88.4,88.7,87.8,87.8
21165010,CO,Pst de Monta,Prado,Tolima,349,-74.92,3.79,76.8,76.1,76.5,79.5,78.8,75.9,71.6,66.1,69.3,74.9,78.8,79.0,74.9
21165030,CO,Lozania,Purificacion,Tolima,400,-74.77,3.90,80.4,80.4,81.6,83.5,83.6,82.4,78.6,74.5,76.5,80.5,82.7,82.1,80.5
22055030,CO,Sta Helena,Purificacion,Tolima,300,-74.90,3.99,73.8,73.0,74.6,76.8,76.8,74.9,71.3,67.6,70.5,75.6,76.7,75.6,74.1
22015020,CO,Relator,Rioblanco,Tolima,1200,-75.63,3.53,78.1,77.2,77.5,78.1,78.4,76.6,73.7,70.0,71.0,75.6,80.2,79.7,76.4
22075030,CO,Riomanso,Rovira,Tolima,2020,-75.28,4.20,89.3,89.5,89.7,90.0,89.4,88.3,87.2,86.6,86.0,88.2,89.8,89.4,88.5
21135020,CO,Jabalcon,Saldana,Tolima,425,-75.02,3.86,74.1,73.8,75.2,77.5,76.4,72.7,67.7,63.1,67.3,74.5,77.2,77.8,73.0
22065040,CO,San Antonio Quinta,San Antonio,Tolima,1500,-75.49,3.91,76.6,75.7,77.6,78.7,77.9,75.5,72.4,69.8,70.3,77.1,80.4,79.4,76.0
23025040,CO,Albania,San Sebastian de Mariquita,Tolima,500,-74.92,5.30,78.7,75.9,77.9,78.5,78.6,75.0,71.9,70.5,74.5,79.2,79.6,80.1,77.0
21255110,CO,Sta Isabel,Santa Isabel,Tolima,2091,-75.13,4.70,89.2,90.0,90.5,90.8,89.7,87.8,87.0,87.1,88.3,89.7,90.2,89.3,89.1
21185080,CO,Valle de San Juan,Valle de San Juan,Tolima,650,-75.10,4.22,78.3,76.3,78.2,81.9,82.7,79.8,73.6,67.0,71.1,78.3,83.1,82.8,77.8
21255120,CO,Villahermosa,Villahermosa,Tolima,2029,-75.12,5.03,89.3,88.6,88.9,89.2,88.7,87.6,85.0,83.8,86.4,88.8,89.8,89.3,87.9
54035020,CO,Argelia El Recreo,Argelia,Valle del Cauca,1600,-76.12,4.73,90.3,89.6,89.2,89.4,89.6,89.6,89.3,89.0,89.3,90.0,89.9,90.3,89.7
53115010,SP,Apto Buenaventura,Buenaventura,Valle del Cauca,14,-76.99,3.82,88.8,87.9,88.0,87.7,88.7,88.4,88.6,88.6,88.6,89.2,89.4,89.3,88.6
54075020,CO,Bajo Calima,Buenaventura,Valle del Cauca,50,-76.99,3.95,88.5,88.1,88.4,88.7,88.9,89.6,89.1,89.1,89.1,89.6,89.5,89.2,89.0
53115020,CP,Colpuertos,Buenaventura,Valle del Cauca,10,-77.07,3.88,87.6,86.9,86.3,87.4,87.6,88.4,87.7,88.3,88.6,89.2,88.7,88.5,87.9
54075040,CO,Mision La,Buenaventura,Valle del Cauca,5,-77.28,4.22,91.0,89.5,89.9,90.4,90.8,92.1,91.2,91.0,91.3,91.7,91.9,91.9,91.1
26105150,CO,San Marcos,Bugalagrande,Valle del Cauca,1002,-76.03,4.24,78.4,77.3,78.5,80.6,81.7,81.0,78.9,75.6,77.0,79.7,81.0,80.6,79.1
26085120,SS,Base Aerea MFS,Cali,Valle del Cauca,954,-76.50,3.46,71.1,71.2,72.1,74.6,74.6,73.1,69.7,67.2,69.4,72.7,74.1,74.7,71.8
26055070,CP,Univ del Valle,Cali,Valle del Cauca,985,-76.53,3.38,71.7,71.4,72.4,75.6,75.6,73.7,70.3,66.9,69.3,73.5,75.3,74.2,72.5
26095080,CO,Tenerife,El Cerrito,Valle del Cauca,2609,-76.07,3.73,85.1,84.0,84.2,85.3,85.1,83.2,80.2,78.5,81.0,84.5,86.6,86.3,83.7
26075080,AM,Cenicana,Florida,Valle del Cauca,1013,-76.30,3.36,77.1,77.0,77.7,79.8,80.4,78.1,74.8,74.6,76.7,79.4,81.1,79.4,78.0
26095230,AM,Vinculo El,Guadalajara de Buga,Valle del Cauca,979,-76.30,3.84,76.2,75.0,76.0,80.0,80.5,79.8,76.4,74.4,75.6,77.9,79.6,79.0,77.6
26115040,CP,Cent Admo La Union,La Union,Valle del Cauca,920,-76.06,4.53,73.3,71.5,72.4,75.3,77.0,76.0,72.1,69.7,72.7,74.7,75.2,74.5,73.9
26075040,SP,Apto A Bonilla,Palmira,Valle del Cauca,961,-76.39,3.53,73.3,72.3,73.4,76.1,76.3,75.3,72.9,71.0,72.1,75.3,76.0,75.2,73.9
26075050,CO,Ing Manuelita Porv,Palmira,Valle del Cauca,1058,-76.28,3.57,76.1,74.5,76.2,77.8,79.0,78.6,74.8,72.9,75.9,78.0,80.0,79.1,76.9
26075010,AM,Palmira Ica,Palmira,Valle del Cauca,1050,-76.32,3.51,76.2,75.1,76.6,79.0,79.2,78.5,74.7,73.3,74.8,77.4,78.8,78.1,76.8
53115030,CO,Julio Fernandez,Restrepo,Valle del Cauca,1360,-76.52,3.82,78.0,77.4,77.8,79.8,79.6,78.8,78.2,78.0,77.7,79.8,80.2,80.1,78.8
26125130,CO,Cumbarco,Sevilla,Valle del Cauca,1692,-75.83,4.19,83.4,83.5,84.5,85.6,86.0,84.9,82.3,81.5,83.5,85.7,86.0,85.1,84.5
26105160,SP,Apto Farfan,Tulua,Valle del Cauca,955,-76.22,4.09,76.2,75.5,75.9,79.6,81.4,81.3,77.4,75.3,76.6,79.1,80.3,78.6,77.8
26105140,CO,Barragan,Tulua,Valle del Cauca,2902,-75.89,4.03,84.8,83.2,83.9,84.3,83.4,82.1,82.1,81.6,81.1,85.0,86.8,86.1,83.7
26105230,CO,Mateguadua,Tulua,Valle del Cauca,1025,-76.17,4.03,81.4,80.4,80.8,82.9,83.8,83.2,81.2,79.7,80.6,82.2,82.8,82.6,81.8
26085130,CO,Buitrera La,Yumbo,Valle del Cauca,1500,-76.57,3.58,85.4,85.2,85.6,87.2,87.7,87.1,83.7,82.1,83.4,86.3,87.9,87.7,85.7
26105110,CO,Ing Riopaila,Zarzal,Valle del Cauca,941,-76.08,4.32,78.2,76.2,77.3,80.5,80.8,80.5,78.0,76.9,77.4,79.3,79.8,80.1,78.8
33055010,CO,Cumaribo,Cumaribo,Vichada,125,-69.80,4.49,71.7,69.9,73.3,81.9,87.3,88.0,87.9,86.6,85.2,84.3,83.0,78.7,81.7
34015010,SP,Gaviotas Las,Cumaribo,Vichada,171,-70.93,4.55,67.1,65.9,71.3,82.5,86.7,87.6,87.1,85.7,84.6,84.0,83.4,77.1,80.1
34035010,CO,Tuparro Bocas Tomo,Cumaribo,Vichada,250,-67.86,5.35,73.3,72.8,72.1,81.7,85.7,87.0,86.1,85.1,84.6,84.0,82.4,78.8,80.9
38015030,CP,Apto Pto Carreno,Puerto Carreno,Vichada,50,-67.49,6.18,61.8,58.1,57.7,67.1,76.2,80.3,80.2,78.7,76.8,75.2,73.0,67.8,71.2
